{"wss://relay.damus.io":{"as":"AS13335 Cloudflare, Inc.","city":"Toronto","country":"Canada","countryCode":"CA","isp":"Cloudflare, Inc.","lat":43.6532,"lon":-79.3832,"org":"Cloudflare, Inc.","query":"172.67.206.128","region":"ON","regionName":"Ontario","timezone":"America/Toronto","zip":"M5A","continentCode":"NA","continentName":"North America","dns":{"name":"relay.damus.io","type":1,"TTL":300,"data":"172.67.206.128"}},"wss://relay.honk.pw":{"as":"AS63949 Akamai Connected Cloud","city":"Richardson","country":"United States","countryCode":"US","isp":"Akamai Technologies, Inc.","lat":32.9473,"lon":-96.7028,"org":"Linode","query":"45.79.243.245","region":"TX","regionName":"Texas","timezone":"America/Chicago","zip":"75081","continentCode":"NA","continentName":"North America","dns":{"name":"relay.honk.pw","type":1,"TTL":118,"data":"45.79.243.245"}},"wss://nostr-pub.wellorder.net":{"as":"AS24940 Hetzner Online GmbH","city":"Nuremberg","country":"Germany","countryCode":"DE","isp":"Hetzner Online GmbH","lat":49.4521,"lon":11.0767,"org":"Hetzner","query":"213.239.207.179","region":"BY","regionName":"Bavaria","timezone":"Europe/Berlin","zip":"90403","continentCode":"EU","continentName":"Europe","dns":{"name":"nostr-pub.wellorder.net","type":1,"TTL":2893,"data":"213.239.207.179"}},"wss://nostr.mom":{"as":"AS24940 Hetzner Online GmbH","city":"Helsinki","country":"Finland","countryCode":"FI","isp":"Hetzner Online GmbH","lat":60.1797,"lon":24.9344,"org":"Hetzner Online GmbH","query":"65.109.112.101","region":"18","regionName":"Uusimaa","timezone":"Europe/Helsinki","zip":"00131","continentCode":"EU","continentName":"Europe","dns":{"name":"nostr.mom","type":1,"TTL":538,"data":"65.109.112.101"}},"wss://global.relay.red":{"as":"AS13335 Cloudflare, Inc.","city":"Amsterdam","country":"Netherlands","countryCode":"NL","isp":"Cloudflare, Inc.","lat":52.3716,"lon":4.8883,"org":"CloudFlare, Inc.","query":"188.114.96.12","region":"NH","regionName":"North Holland","timezone":"Europe/Amsterdam","zip":"1012","continentCode":"EU","continentName":"Europe","dns":{"name":"global.relay.red","type":1,"TTL":118,"data":"188.114.96.12"}},"wss://sg.qemura.xyz":{"as":"AS13335 Cloudflare, Inc.","city":"Amsterdam","country":"Netherlands","countryCode":"NL","isp":"Cloudflare, Inc.","lat":52.3716,"lon":4.8883,"org":"CloudFlare, Inc.","query":"188.114.96.12","region":"NH","regionName":"North Holland","timezone":"Europe/Amsterdam","zip":"1012","continentCode":"EU","continentName":"Europe","dns":{"name":"sg.qemura.xyz","type":1,"TTL":300,"data":"188.114.96.12"}},"wss://relay.stoner.com":{"as":"AS31898 Oracle Corporation","city":"Zurich","country":"Switzerland","countryCode":"CH","isp":"Oracle Corporation","lat":47.4049,"lon":8.4631,"org":"Oracle Cloud Infrastructure (eu-zurich-1)","query":"140.238.171.111","region":"ZH","regionName":"Zurich","timezone":"Europe/Zurich","zip":"8102","continentCode":"EU","continentName":"Europe","dns":{"name":"relay.stoner.com","type":1,"TTL":300,"data":"140.238.171.111"}},"wss://nostr.einundzwanzig.space":{"as":"AS51167 Contabo GmbH","city":"Nuremberg","country":"Germany","countryCode":"DE","isp":"Contabo GmbH","lat":49.405,"lon":11.1617,"org":"Contabo GmbH","query":"62.171.139.240","region":"BY","regionName":"Bavaria","timezone":"Europe/Berlin","zip":"90475","continentCode":"EU","continentName":"Europe","dns":{"name":"nostr.einundzwanzig.space","type":1,"TTL":3600,"data":"62.171.139.240"}},"wss://nostr.cercatrova.me":{"as":"AS24940 Hetzner Online GmbH","city":"Nuremberg","country":"Germany","countryCode":"DE","isp":"Hetzner Online GmbH","lat":49.4521,"lon":11.0767,"org":"Hetzner","query":"5.75.238.80","region":"BY","regionName":"Bavaria","timezone":"Europe/Berlin","zip":"90403","continentCode":"EU","continentName":"Europe","dns":{"name":"nostr.cercatrova.me","type":1,"TTL":8431,"data":"5.75.238.80"}},"wss://nostr.swiss-enigma.ch":{"as":"AS24940 Hetzner Online GmbH","city":"Nuremberg","country":"Germany","countryCode":"DE","isp":"Hetzner Online GmbH","lat":49.4521,"lon":11.0767,"org":"Hetzner","query":"5.75.238.80","region":"BY","regionName":"Bavaria","timezone":"Europe/Berlin","zip":"90403","continentCode":"EU","continentName":"Europe","dns":{"name":"nostr.swiss-enigma.ch","type":1,"TTL":5960,"data":"5.75.238.80"}},"wss://nos.lol":{"as":"AS24940 Hetzner Online GmbH","city":"Nuremberg","country":"Germany","countryCode":"DE","isp":"Hetzner Online GmbH","lat":49.4521,"lon":11.0767,"org":"Hetzner","query":"85.10.199.23","region":"BY","regionName":"Bavaria","timezone":"Europe/Berlin","zip":"90403","continentCode":"EU","continentName":"Europe","dns":{"name":"nos.lol","type":1,"TTL":1445,"data":"85.10.199.23"}},"wss://relay.current.fyi":{"as":"AS14618 Amazon.com, Inc.","city":"Ashburn","country":"United States","countryCode":"US","isp":"Amazon.com, Inc.","lat":39.0438,"lon":-77.4874,"org":"AWS EC2 (us-east-1)","query":"34.237.85.126","region":"VA","regionName":"Virginia","timezone":"America/New_York","zip":"20149","continentCode":"NA","continentName":"North America","dns":{"name":"relay.current.fyi","type":1,"TTL":60,"data":"34.237.85.126"}},"wss://relay.nostr.band":{"as":"AS24940 Hetzner Online GmbH","city":"Helsinki","country":"Finland","countryCode":"FI","isp":"Hetzner Online GmbH","lat":60.1719,"lon":24.9347,"org":"HETZNER-DC","query":"95.216.33.150","region":"18","regionName":"Uusimaa","timezone":"Europe/Helsinki","zip":"00100","continentCode":"EU","continentName":"Europe","dns":{"name":"relay.nostr.band","type":1,"TTL":283,"data":"95.216.33.150"}},"wss://nostr-relay.derekross.me":{"as":"AS13335 Cloudflare, Inc.","city":"Amsterdam","country":"Netherlands","countryCode":"NL","isp":"Cloudflare, Inc.","lat":52.3716,"lon":4.8883,"org":"CloudFlare, Inc.","query":"188.114.96.12","region":"NH","regionName":"North Holland","timezone":"Europe/Amsterdam","zip":"1012","continentCode":"EU","continentName":"Europe","dns":{"name":"nostr-relay.derekross.me","type":1,"TTL":300,"data":"188.114.96.12"}},"wss://relay.oldcity-bitcoiners.info":{"as":"AS7018 AT&T Services, Inc.","city":"Saint Augustine","country":"United States","countryCode":"US","isp":"AT&T Services, Inc.","lat":29.8237,"lon":-81.3241,"org":"AT&T Corp","query":"99.184.79.163","region":"FL","regionName":"Florida","timezone":"America/New_York","zip":"32086","continentCode":"NA","continentName":"North America","dns":{"name":"oldcity-bitcoiners.info","type":1,"TTL":300,"data":"99.184.79.163"}},"wss://nostr.drss.io":{"as":"AS14061 DigitalOcean, LLC","city":"North Bergen","country":"United States","countryCode":"US","isp":"DigitalOcean, LLC","lat":40.793,"lon":-74.0247,"org":"DigitalOcean, LLC","query":"159.223.114.23","region":"NJ","regionName":"New Jersey","timezone":"America/New_York","zip":"07047","continentCode":"NA","continentName":"North America","dns":{"name":"nostr.drss.io","type":1,"TTL":600,"data":"159.223.114.23"}},"wss://nostr-relay.alekberg.net":{"as":"AS202448 MVPS LTD","city":"Dronten","country":"Netherlands","countryCode":"NL","isp":"Mvps LTD","lat":52.5275,"lon":5.7271,"org":"Mvps LTD","query":"89.38.131.38","region":"FL","regionName":"Flevoland","timezone":"Europe/Amsterdam","zip":"8254","continentCode":"EU","continentName":"Europe","dns":{"name":"nostr-relay.alekberg.net","type":1,"TTL":3600,"data":"89.38.131.38"}},"wss://no.str.cr":{"as":"AS52423 Data Miners S.A. ( Racknation.cr )","city":"Heredia","country":"Costa Rica","countryCode":"CR","isp":"Data Miners S.A. ( Racknation.cr )","lat":9.9888,"lon":-84.1256,"org":"Data Miners S.A. ( Racknation.cr )","query":"143.202.162.130","region":"H","regionName":"Heredia Province","timezone":"America/Costa_Rica","zip":"40103","continentCode":"NA","continentName":"North America","dns":{"name":"no.str.cr","type":1,"TTL":600,"data":"143.202.162.130"}},"wss://nostr.bongbong.com":{"as":"AS31898 Oracle Corporation","city":"Ashburn","country":"United States","countryCode":"US","isp":"Oracle Corporation","lat":39.018,"lon":-77.539,"org":"Oracle Cloud Infrastructure (us-ashburn-1)","query":"129.213.28.171","region":"VA","regionName":"Virginia","timezone":"America/New_York","zip":"20147","continentCode":"NA","continentName":"North America","dns":{"name":"nostr.bongbong.com","type":1,"TTL":300,"data":"129.213.28.171"}},"wss://relay.sendstr.com":{"as":"AS13335 Cloudflare, Inc.","city":"Toronto","country":"Canada","countryCode":"CA","isp":"Cloudflare, Inc.","lat":43.6532,"lon":-79.3832,"org":"Cloudflare, Inc.","query":"104.21.83.70","region":"ON","regionName":"Ontario","timezone":"America/Toronto","zip":"M5A","continentCode":"NA","continentName":"North America","dns":{"name":"relay.sendstr.com","type":1,"TTL":300,"data":"104.21.83.70"}},"wss://relay.cryptocculture.com":{"as":"AS40509 Fly.io, Inc.","city":"Chicago","country":"United States","countryCode":"US","isp":"Fly.io, Inc.","lat":41.8781,"lon":-87.6298,"org":"Fly.io, Inc.","query":"149.248.196.200","region":"IL","regionName":"Illinois","timezone":"America/Chicago","zip":"60680","continentCode":"NA","continentName":"North America","dns":{"name":"relay.cryptocculture.com","type":1,"TTL":282,"data":"149.248.196.200"}},"wss://relay.nostr.scot":{"as":"AS8560 IONOS SE","city":"Gloucester","country":"United Kingdom","countryCode":"GB","isp":"IONOS SE","lat":51.8615,"lon":-2.25094,"org":"Fasthosts Internet Limited","query":"213.171.194.244","region":"ENG","regionName":"England","timezone":"Europe/London","zip":"GL1 2EX","continentCode":"EU","continentName":"Europe","dns":{"name":"relay.nostr.scot","type":1,"TTL":3600,"data":"213.171.194.244"}},"wss://nostr.hackerman.pro":{"as":"AS14061 DigitalOcean, LLC","city":"Frankfurt am Main","country":"Germany","countryCode":"DE","isp":"DigitalOcean, LLC","lat":50.1188,"lon":8.6843,"org":"DigitalOcean, LLC","query":"164.90.218.45","region":"HE","regionName":"Hesse","timezone":"Europe/Berlin","zip":"60313","continentCode":"EU","continentName":"Europe","dns":{"name":"nostr.hackerman.pro","type":1,"TTL":3109,"data":"164.90.218.45"}},"wss://nostr.blockchaincaffe.it":{"as":"AS16509 Amazon.com, Inc.","city":"Frankfurt am Main","country":"Germany","countryCode":"DE","isp":"Amazon Technologies Inc.","lat":50.1109,"lon":8.68213,"org":"AWS EC2 (eu-central-1)","query":"3.123.142.158","region":"HE","regionName":"Hesse","timezone":"Europe/Berlin","zip":"60313","continentCode":"EU","continentName":"Europe","dns":{"name":"ec2-3-123-142-158.eu-central-1.compute.amazonaws.com","type":1,"TTL":604800,"data":"3.123.142.158"}},"wss://relay.taxi":{"as":"AS63949 Akamai Connected Cloud","city":"Richardson","country":"United States","countryCode":"US","isp":"Akamai Technologies, Inc.","lat":32.9473,"lon":-96.7028,"org":"Linode","query":"45.79.20.30","region":"TX","regionName":"Texas","timezone":"America/Chicago","zip":"75081","continentCode":"NA","continentName":"North America","dns":{"name":"relay.taxi","type":1,"TTL":86400,"data":"45.79.20.30"}},"wss://nostr.kollider.xyz":{"as":"AS16509 Amazon.com, Inc.","city":"Dublin","country":"Ireland","countryCode":"IE","isp":"Amazon Technologies Inc.","lat":53.3498,"lon":-6.26031,"org":"AWS EC2 (eu-west-1)","query":"3.250.163.159","region":"L","regionName":"Leinster","timezone":"Europe/Dublin","zip":"D02","continentCode":"EU","continentName":"Europe","dns":{"name":"nostr.kollider.xyz","type":1,"TTL":60,"data":"3.250.163.159"}},"wss://nostr.massmux.com":{"as":"AS51167 Contabo GmbH","city":"Düsseldorf","country":"Germany","countryCode":"DE","isp":"Contabo GmbH","lat":51.1878,"lon":6.8607,"org":"Contabo GmbH","query":"161.97.173.20","region":"NW","regionName":"North Rhine-Westphalia","timezone":"Europe/Berlin","zip":"40599","continentCode":"EU","continentName":"Europe","dns":{"name":"nostr.massmux.com","type":1,"TTL":282,"data":"161.97.173.20"}},"wss://nostr.relayer.se":{"as":"AS39287 ab stract","city":"Malmo","country":"Sweden","countryCode":"SE","isp":"ab stract","lat":55.605,"lon":13.0038,"org":"ab stract","query":"80.78.23.67","region":"M","regionName":"Skåne County","timezone":"Europe/Stockholm","zip":"200 01","continentCode":"EU","continentName":"Europe","dns":{"name":"nostr.relayer.se","type":1,"TTL":2758,"data":"80.78.23.67"}},"wss://nostr.ethtozero.fr":{"as":"AS16276 OVH SAS","city":"Beauharnois","country":"Canada","countryCode":"CA","isp":"OVH SAS","lat":45.3151,"lon":-73.8779,"org":"OVH Hosting, Inc.","query":"198.27.70.214","region":"QC","regionName":"Quebec","timezone":"America/Toronto","zip":"J6N","continentCode":"NA","continentName":"North America","dns":{"name":"nostr.ethtozero.fr","type":1,"TTL":6724,"data":"198.27.70.214"}},"wss://nostr-relay.digitalmob.ro":{"as":"AS12310 iNES GROUP SRL","city":"Bucharest","country":"Romania","countryCode":"RO","isp":"iNES GROUP SRL","lat":44.4268,"lon":26.1025,"org":"ITH","query":"80.86.101.27","region":"B","regionName":"Bucharest","timezone":"Europe/Bucharest","zip":"052829","continentCode":"EU","continentName":"Europe","dns":{"name":"nostr-relay.digitalmob.ro","type":1,"TTL":6905,"data":"80.86.101.27"}},"wss://blg.nostr.sx":{"as":"AS9009 M247 Europe SRL","city":"Belgrade","country":"Serbia","countryCode":"RS","isp":"Virtono Networks SRL","lat":44.8125,"lon":20.4612,"org":"Virtono Networks SRL","query":"85.121.233.156","region":"","regionName":"Central Serbia","timezone":"Europe/Belgrade","zip":"","continentCode":"EU","continentName":"Europe","dns":{"name":"blg.nostr.sx","type":1,"TTL":300,"data":"85.121.233.156"}},"wss://nostr-relay.schnitzel.world":{"as":"AS14618 Amazon.com, Inc.","city":"Ashburn","country":"United States","countryCode":"US","isp":"Amazon.com, Inc.","lat":39.0438,"lon":-77.4874,"org":"AWS EC2 (us-east-1)","query":"54.90.185.146","region":"VA","regionName":"Virginia","timezone":"America/New_York","zip":"20149","continentCode":"NA","continentName":"North America","dns":{"name":"us2.amazee.io","type":1,"TTL":60,"data":"54.90.185.146"}},"wss://nostr1.tunnelsats.com":{"as":"AS51167 Contabo GmbH","city":"Diyarbakır","country":"Turkey","countryCode":"TR","isp":"Cogent Communications","lat":37.9139,"lon":40.2213,"org":"Contabo GmbH","query":"38.242.145.180","region":"21","regionName":"Diyarbakir","timezone":"Europe/Istanbul","zip":"21110","continentCode":"AS","continentName":"Asia","dns":{"name":"nostr1.tunnelsats.com","type":1,"TTL":300,"data":"38.242.145.180"}},"wss://nostr.radixrat.com":{"as":"AS14061 DigitalOcean, LLC","city":"Toronto","country":"Canada","countryCode":"CA","isp":"DigitalOcean, LLC","lat":43.6547,"lon":-79.3623,"org":"DigitalOcean, LLC","query":"138.197.156.126","region":"ON","regionName":"Ontario","timezone":"America/Toronto","zip":"M5A","continentCode":"NA","continentName":"North America","dns":{"name":"nostr.radixrat.com","type":1,"TTL":3600,"data":"138.197.156.126"}},"wss://relay.t5y.ca":{"as":"AS16276 OVH SAS","city":"Beauharnois","country":"Canada","countryCode":"CA","isp":"OVH Hosting","lat":45.3151,"lon":-73.8779,"org":"Trinary","query":"51.161.107.236","region":"QC","regionName":"Quebec","timezone":"America/Toronto","zip":"J6N","continentCode":"NA","continentName":"North America","dns":{"name":"relay.t5y.ca","type":1,"TTL":3181,"data":"51.161.107.236"}},"wss://relay.nostr.com.au":{"as":"AS13335 Cloudflare, Inc.","city":"Toronto","country":"Canada","countryCode":"CA","isp":"Cloudflare, Inc.","lat":43.6532,"lon":-79.3832,"org":"Cloudflare, Inc.","query":"104.21.94.12","region":"ON","regionName":"Ontario","timezone":"America/Toronto","zip":"M5A","continentCode":"NA","continentName":"North America","dns":{"name":"relay.nostr.com.au","type":1,"TTL":300,"data":"104.21.94.12"}},"wss://knostr.neutrine.com":{"as":"AS14061 DigitalOcean, LLC","city":"North Bergen","country":"United States","countryCode":"US","isp":"DigitalOcean, LLC","lat":40.793,"lon":-74.0247,"org":"DigitalOcean, LLC","query":"161.35.52.43","region":"NJ","regionName":"New Jersey","timezone":"America/New_York","zip":"07047","continentCode":"NA","continentName":"North America","dns":{"name":"knostr.neutrine.com","type":1,"TTL":911,"data":"161.35.52.43"}},"wss://nostr.nodeofsven.com":{"as":"AS3303 Swisscom (Schweiz) AG","city":"Dielsdorf","country":"Switzerland","countryCode":"CH","isp":"Swisscom (Schweiz) AG - Bluewin","lat":47.4824,"lon":8.4512,"org":"Swisscom (Schweiz) AG","query":"92.105.17.74","region":"ZH","regionName":"Zurich","timezone":"Europe/Zurich","zip":"8157","continentCode":"EU","continentName":"Europe","dns":{"name":"nostr.nodeofsven.com","type":1,"TTL":60,"data":"92.105.17.74"}},"wss://relay.n057r.club":{"as":"AS20857 Signet B.V.","city":"Rotterdam","country":"Netherlands","countryCode":"NL","isp":"TransIP BV","lat":51.9244,"lon":4.47773,"org":"","query":"136.144.240.159","region":"ZH","regionName":"South Holland","timezone":"Europe/Amsterdam","zip":"3012","continentCode":"EU","continentName":"Europe","dns":{"name":"relay.n057r.club","type":1,"TTL":300,"data":"136.144.240.159"}},"wss://nostrical.com":{"as":"AS63949 Akamai Connected Cloud","city":"Frankfurt am Main","country":"Germany","countryCode":"DE","isp":"Akamai Technologies, Inc.","lat":50.1188,"lon":8.6843,"org":"Linode","query":"139.177.178.227","region":"HE","regionName":"Hesse","timezone":"Europe/Berlin","zip":"60313","continentCode":"EU","continentName":"Europe","dns":{"name":"nostrical.com","type":1,"TTL":78340,"data":"139.177.178.227"}},"wss://nostr-relay.freedomnode.com":{"as":"AS13335 Cloudflare, Inc.","city":"Toronto","country":"Canada","countryCode":"CA","isp":"Cloudflare, Inc.","lat":43.6532,"lon":-79.3832,"org":"Cloudflare, Inc.","query":"172.67.181.158","region":"ON","regionName":"Ontario","timezone":"America/Toronto","zip":"M5A","continentCode":"NA","continentName":"North America","dns":{"name":"nostr-relay.freedomnode.com","type":1,"TTL":282,"data":"172.67.181.158"}},"wss://nostr.gromeul.eu":{"as":"AS16276 OVH SAS","city":"Gravelines","country":"France","countryCode":"FR","isp":"OVH SAS","lat":50.9871,"lon":2.12554,"org":"OVH","query":"51.210.144.78","region":"HDF","regionName":"Hauts-de-France","timezone":"Europe/Paris","zip":"59820","continentCode":"EU","continentName":"Europe","dns":{"name":"nostr.gromeul.eu","type":1,"TTL":9885,"data":"51.210.144.78"}},"wss://node01.nostress.cc":{"as":"AS45839 Shinjiru Technology Sdn Bhd","city":"Kuala Lumpur","country":"Malaysia","countryCode":"MY","isp":"Shinjiru Technology Sdn Bhd","lat":3.1413,"lon":101.685,"org":"Shinjiru Technology Sdn Bhd","query":"111.90.139.40","region":"14","regionName":"Kuala Lumpur","timezone":"Asia/Kuala_Lumpur","zip":"50632","continentCode":"AS","continentName":"Asia","dns":{"name":"node01.nostress.cc","type":1,"TTL":885,"data":"111.90.139.40"}},"wss://relay.nostrich.de":{"as":"AS51167 Contabo GmbH","city":"Düsseldorf","country":"Germany","countryCode":"DE","isp":"Contabo GmbH","lat":51.1878,"lon":6.8607,"org":"Contabo GmbH","query":"217.76.57.228","region":"NW","regionName":"North Rhine-Westphalia","timezone":"Europe/Berlin","zip":"40599","continentCode":"EU","continentName":"Europe","dns":{"name":"relay.nostrich.de","type":1,"TTL":8604,"data":"217.76.57.228"}},"wss://nostr.mustardnodes.com":{"as":"AS132372 GB Network Solutions Sdn. Bhd.","city":"Cyberjaya","country":"Malaysia","countryCode":"MY","isp":"GB Network Solutions Sdn. Bhd.","lat":2.9679,"lon":101.653,"org":"GB Network Solutions Sdn. Bhd","query":"103.122.164.69","region":"10","regionName":"Selangor","timezone":"Asia/Kuala_Lumpur","zip":"63000","continentCode":"AS","continentName":"Asia","dns":{"name":"blox.mustardnodes.com","type":1,"TTL":300,"data":"103.122.164.69"}},"wss://nostr-bg01.ciph.rs":{"as":"AS9009 M247 Europe SRL","city":"Belgrade","country":"Serbia","countryCode":"RS","isp":"Virtono Networks SRL","lat":44.8125,"lon":20.4612,"org":"Virtono Networks SRL","query":"85.121.233.156","region":"","regionName":"Central Serbia","timezone":"Europe/Belgrade","zip":"","continentCode":"EU","continentName":"Europe","dns":{"name":"nostr-bg01.ciph.rs","type":1,"TTL":300,"data":"85.121.233.156"}},"wss://nostr.vulpem.com":{"as":"AS24940 Hetzner Online GmbH","city":"Falkenstein","country":"Germany","countryCode":"DE","isp":"Hetzner Online GmbH","lat":50.475,"lon":12.365,"org":"Hetzner Online GmbH","query":"167.235.75.194","region":"SN","regionName":"Saxony","timezone":"Europe/Berlin","zip":"08223","continentCode":"EU","continentName":"Europe","dns":{"name":"nostr.vulpem.com","type":1,"TTL":60,"data":"167.235.75.194"}},"wss://relay.ryzizub.com":{"as":"AS396982 Google LLC","city":"Brussels","country":"Belgium","countryCode":"BE","isp":"Google LLC","lat":50.9009,"lon":4.4855,"org":"Google Cloud (europe-west1)","query":"35.205.78.20","region":"BRU","regionName":"Brussels Capital","timezone":"Europe/Brussels","zip":"1930","continentCode":"EU","continentName":"Europe","dns":{"name":"relay.ryzizub.com","type":1,"TTL":282,"data":"35.205.78.20"}},"wss://relay.farscapian.com":{"as":"AS7018 AT&T Services, Inc.","city":"Saint Augustine","country":"United States","countryCode":"US","isp":"AT&T Services, Inc.","lat":29.8237,"lon":-81.3241,"org":"AT&T Corp","query":"99.184.79.163","region":"FL","regionName":"Florida","timezone":"America/New_York","zip":"32086","continentCode":"NA","continentName":"North America","dns":{"name":"farscapian.com","type":1,"TTL":300,"data":"99.184.79.163"}},"wss://nostr3.actn.io":{"as":"AS13335 Cloudflare, Inc.","city":"Amsterdam","country":"Netherlands","countryCode":"NL","isp":"Cloudflare, Inc.","lat":52.3716,"lon":4.8883,"org":"CloudFlare, Inc.","query":"188.114.97.12","region":"NH","regionName":"North Holland","timezone":"Europe/Amsterdam","zip":"1012","continentCode":"EU","continentName":"Europe","dns":{"name":"nostr3.actn.io","type":1,"TTL":300,"data":"188.114.97.12"}},"wss://nostr.bostonbtc.com":{"as":"AS63949 Akamai Connected Cloud","city":"Cedar Knolls","country":"United States","countryCode":"US","isp":"Akamai Technologies, Inc.","lat":40.8229,"lon":-74.4592,"org":"Linode","query":"66.228.32.20","region":"NJ","regionName":"New Jersey","timezone":"America/New_York","zip":"07927","continentCode":"NA","continentName":"North America","dns":{"name":"nostr.bostonbtc.com","type":1,"TTL":315,"data":"66.228.32.20"}},"wss://nostr.bch.ninja":{"as":"AS16276 OVH SAS","city":"Reston","country":"United States","countryCode":"US","isp":"OVH SAS","lat":38.9555,"lon":-77.3643,"org":"OVH US LLC","query":"135.148.236.244","region":"VA","regionName":"Virginia","timezone":"America/New_York","zip":"20190","continentCode":"NA","continentName":"North America","dns":{"name":"nostr.bch.ninja","type":1,"TTL":1782,"data":"135.148.236.244"}},"wss://relay.sovereign-stack.org":{"as":"AS7018 AT&T Services, Inc.","city":"Saint Augustine","country":"United States","countryCode":"US","isp":"AT&T Services, Inc.","lat":29.8237,"lon":-81.3241,"org":"AT&T Corp","query":"99.184.79.163","region":"FL","regionName":"Florida","timezone":"America/New_York","zip":"32086","continentCode":"NA","continentName":"North America","dns":{"name":"sovereign-stack.org","type":1,"TTL":300,"data":"99.184.79.163"}},"wss://nostr-verif.slothy.win":{"as":"AS13335 Cloudflare, Inc.","city":"Amsterdam","country":"Netherlands","countryCode":"NL","isp":"Cloudflare, Inc.","lat":52.3716,"lon":4.8883,"org":"CloudFlare, Inc.","query":"188.114.96.12","region":"NH","regionName":"North Holland","timezone":"Europe/Amsterdam","zip":"1012","continentCode":"EU","continentName":"Europe","dns":{"name":"nostr-verif.slothy.win","type":1,"TTL":283,"data":"188.114.96.12"}},"wss://nostr.supremestack.xyz":{"as":"AS174 Cogent Communications","city":"Toronto","country":"Canada","countryCode":"CA","isp":"Cogent Communications","lat":43.7696,"lon":-79.3309,"org":"Lunanode Hosting Inc.","query":"170.75.175.107","region":"ON","regionName":"Ontario","timezone":"America/Toronto","zip":"M3A","continentCode":"NA","continentName":"North America","dns":{"name":"nostr.supremestack.xyz","type":1,"TTL":81361,"data":"170.75.175.107"}},"wss://relay.lexingtonbitcoin.org":{"as":"AS213230 Hetzner Online GmbH","city":"Ashburn","country":"United States","countryCode":"US","isp":"Hetzner Online GmbH","lat":39.0438,"lon":-77.4874,"org":"HETZNER-DC","query":"5.161.77.136","region":"VA","regionName":"Virginia","timezone":"America/New_York","zip":"20149","continentCode":"NA","continentName":"North America","dns":{"name":"relay.lexingtonbitcoin.org","type":1,"TTL":600,"data":"5.161.77.136"}},"wss://relay.nostr.moe":{"as":"AS396982 Google LLC","city":"The Dalles","country":"United States","countryCode":"US","isp":"Google LLC","lat":45.5945,"lon":-121.1786,"org":"Google Cloud (us-west1)","query":"104.196.232.237","region":"OR","regionName":"Oregon","timezone":"America/Los_Angeles","zip":"97058","continentCode":"NA","continentName":"North America","dns":{"name":"nostream-production-48b9.up.railway.app","type":1,"TTL":300,"data":"104.196.232.237"}},"wss://nostr-1.nbo.angani.co":{"as":"AS37684 Angani Limited","city":"Nairobi","country":"Kenya","countryCode":"KE","isp":"Angani - KE","lat":-1.2841,"lon":36.8155,"org":"","query":"62.12.112.214","region":"30","regionName":"Nairobi","timezone":"Africa/Nairobi","zip":"09831","continentCode":"AF","continentName":"Africa","dns":{"name":"nostr-1.nbo.angani.co","type":1,"TTL":300,"data":"62.12.112.214"}},"wss://nostr.zoomout.chat":{"as":"AS44925 1984 ehf","city":"Reykjavik","country":"Iceland","countryCode":"IS","isp":"The 1984 ehf","lat":64.1476,"lon":-21.9392,"org":"","query":"93.95.227.189","region":"1","regionName":"Capital Region","timezone":"Atlantic/Reykjavik","zip":"101","continentCode":"EU","continentName":"Europe","dns":{"name":"nostr.zoomout.chat","type":1,"TTL":78719,"data":"93.95.227.189"}},"wss://nostr.coollamer.com":{"as":"AS24940 Hetzner Online GmbH","city":"Falkenstein","country":"Germany","countryCode":"DE","isp":"Hetzner Online GmbH","lat":50.475,"lon":12.365,"org":"Hetzner","query":"144.76.102.11","region":"SN","regionName":"Saxony","timezone":"Europe/Berlin","zip":"08223","continentCode":"EU","continentName":"Europe","dns":{"name":"nostr.coollamer.com","type":1,"TTL":66683,"data":"144.76.102.11"}},"wss://nostr.mnethome.de":{"as":"AS3209 Vodafone GmbH","city":"Zweibrücken","country":"Germany","countryCode":"DE","isp":"Vodafone Kabel Deutschland","lat":49.2511,"lon":7.3704,"org":"Kabel Deutschland Customer Services","query":"31.19.170.120","region":"RP","regionName":"Rheinland-Pfalz","timezone":"Europe/Berlin","zip":"66482","continentCode":"EU","continentName":"Europe","dns":{"name":"nostr.mnethome.de","type":1,"TTL":43,"data":"31.19.170.120"}},"wss://nostr.blocs.fr":{"as":"AS12876 ONLINE S.A.S.","city":"Paris","country":"France","countryCode":"FR","isp":"SCALEWAY","lat":48.8323,"lon":2.4075,"org":"ONLINE","query":"51.158.112.161","region":"IDF","regionName":"Île-de-France","timezone":"Europe/Paris","zip":"75001","continentCode":"EU","continentName":"Europe","dns":{"name":"nostr.blocs.fr","type":1,"TTL":2889,"data":"51.158.112.161"}},"wss://nostr.8e23.net":{"as":"AS24940 Hetzner Online GmbH","city":"Falkenstein","country":"Germany","countryCode":"DE","isp":"Hetzner Online GmbH","lat":50.475,"lon":12.365,"org":"Hetzner","query":"142.132.228.94","region":"SN","regionName":"Saxony","timezone":"Europe/Berlin","zip":"08223","continentCode":"EU","continentName":"Europe","dns":{"name":"nostr.8e23.net","type":1,"TTL":283,"data":"142.132.228.94"}},"wss://btc.klendazu.com":{"as":"AS3352 TELEFONICA DE ESPANA S.A.U.","city":"Barcelona","country":"Spain","countryCode":"ES","isp":"Telefonica de Espana SAU","lat":41.387,"lon":2.1701,"org":"RIMA (Red IP Multi Acceso)","query":"88.3.210.198","region":"CT","regionName":"Catalonia","timezone":"Europe/Madrid","zip":"08036","continentCode":"EU","continentName":"Europe","dns":{"name":"btc.klendazu.com","type":1,"TTL":41995,"data":"88.3.210.198"}},"wss://nostr.sabross.xyz":{"as":"AS40021 Contabo Inc.","city":"St Louis","country":"United States","countryCode":"US","isp":"Contabo Inc.","lat":38.6327,"lon":-90.1956,"org":"Contabo Inc","query":"66.94.111.202","region":"MO","regionName":"Missouri","timezone":"America/Chicago","zip":"63101","continentCode":"NA","continentName":"North America","dns":{"name":"nostr.sabross.xyz","type":1,"TTL":1783,"data":"66.94.111.202"}},"wss://nostr2.actn.io":{"as":"AS13335 Cloudflare, Inc.","city":"Amsterdam","country":"Netherlands","countryCode":"NL","isp":"Cloudflare, Inc.","lat":52.3716,"lon":4.8883,"org":"CloudFlare, Inc.","query":"188.114.97.12","region":"NH","regionName":"North Holland","timezone":"Europe/Amsterdam","zip":"1012","continentCode":"EU","continentName":"Europe","dns":{"name":"nostr2.actn.io","type":1,"TTL":300,"data":"188.114.97.12"}},"wss://relay.plebstr.com":{"as":"AS396982 Google LLC","city":"Groningen","country":"Netherlands","countryCode":"NL","isp":"Google LLC","lat":53.2193,"lon":6.5665,"org":"Google Cloud (europe-west4)","query":"35.204.58.160","region":"GR","regionName":"Groningen","timezone":"Europe/Amsterdam","zip":"","continentCode":"EU","continentName":"Europe","dns":{"name":"relay.plebstr.com","type":1,"TTL":3600,"data":"35.204.58.160"}},"wss://nostr.uselessshit.co":{"as":"AS14061 DigitalOcean, LLC","city":"North Bergen","country":"United States","countryCode":"US","isp":"DigitalOcean, LLC","lat":40.793,"lon":-74.0247,"org":"Digital Ocean","query":"138.197.227.216","region":"NJ","regionName":"New Jersey","timezone":"America/New_York","zip":"07047","continentCode":"NA","continentName":"North America","dns":{"name":"nostr.uselessshit.co","type":1,"TTL":300,"data":"138.197.227.216"}},"wss://nostr.adpo.co":{"as":"AS7922 Comcast Cable Communications, LLC","city":"Fort Wayne","country":"United States","countryCode":"US","isp":"Comcast Cable Communications, LLC","lat":41.1954,"lon":-85.1177,"org":"Comcast Cable Communications, Inc.","query":"68.45.11.87","region":"IN","regionName":"Indiana","timezone":"America/Indiana/Indianapolis","zip":"46845","continentCode":"NA","continentName":"North America","dns":{"name":"nostr.adpo.co","type":1,"TTL":714,"data":"68.45.11.87"}},"wss://relay.wellorder.net":{"as":"AS24940 Hetzner Online GmbH","city":"Nuremberg","country":"Germany","countryCode":"DE","isp":"Hetzner Online GmbH","lat":49.4521,"lon":11.0767,"org":"Hetzner","query":"213.239.207.179","region":"BY","regionName":"Bavaria","timezone":"Europe/Berlin","zip":"90403","continentCode":"EU","continentName":"Europe","dns":{"name":"hzg-web-p01.wellorder.net","type":1,"TTL":425631,"data":"213.239.207.179"}},"wss://nostr.handyjunky.com":{"as":"AS24940 Hetzner Online GmbH","city":"Nuremberg","country":"Germany","countryCode":"DE","isp":"Hetzner Online GmbH","lat":49.4521,"lon":11.0767,"org":"Hetzner","query":"5.75.159.65","region":"BY","regionName":"Bavaria","timezone":"Europe/Berlin","zip":"90403","continentCode":"EU","continentName":"Europe","dns":{"name":"nostr.handyjunky.com","type":1,"TTL":1146,"data":"5.75.159.65"}},"wss://relay-pub.deschooling.us":{"as":"AS213230 Hetzner Online GmbH","city":"Ashburn","country":"United States","countryCode":"US","isp":"Hetzner Online GmbH","lat":39.0438,"lon":-77.4874,"org":"HETZNER-DC","query":"5.161.179.3","region":"VA","regionName":"Virginia","timezone":"America/New_York","zip":"20149","continentCode":"NA","continentName":"North America","dns":{"name":"relay-pub.deschooling.us","type":1,"TTL":86400,"data":"5.161.179.3"}},"wss://nostr.satsophone.tk":{"as":"AS38195 Superloop","city":"Brisbane","country":"Australia","countryCode":"AU","isp":"SUPERLOOP (AUSTRALIA) PTY LTD","lat":-27.4679,"lon":153.0325,"org":"SUPERLOOP (AUSTRALIA) PTY LTD","query":"125.253.102.237","region":"QLD","regionName":"Queensland","timezone":"Australia/Brisbane","zip":"4000","continentCode":"OC","continentName":"Oceania","dns":{"name":"nostr.satsophone.tk","type":1,"TTL":3600,"data":"125.253.102.237"}},"wss://nostr.easydns.ca":{"as":"AS16686 easyDNS Technologies, Inc.","city":"Toronto","country":"Canada","countryCode":"CA","isp":"easyDNS Technologies, Inc.","lat":43.6532,"lon":-79.3832,"org":"easyDNS Technologies, Inc.","query":"64.68.204.22","region":"ON","regionName":"Ontario","timezone":"America/Toronto","zip":"M5A","continentCode":"NA","continentName":"North America","dns":{"name":"nostr.easydns.ca","type":1,"TTL":300,"data":"64.68.204.22"}},"wss://relay.dwadziesciajeden.pl":{"as":"AS12876 ONLINE S.A.S.","city":"Warsaw","country":"Poland","countryCode":"PL","isp":"Online S.A.S.","lat":52.1574,"lon":21.0126,"org":"Scaleway","query":"151.115.76.107","region":"14","regionName":"Mazovia","timezone":"Europe/Warsaw","zip":"02-822","continentCode":"EU","continentName":"Europe","dns":{"name":"relay.dwadziesciajeden.pl","type":1,"TTL":2809,"data":"151.115.76.107"}},"wss://nostr-relay.gkbrk.com":{"as":"AS24940 Hetzner Online GmbH","city":"Helsinki","country":"Finland","countryCode":"FI","isp":"Hetzner Online GmbH","lat":60.1719,"lon":24.9347,"org":"HETZNER-DC","query":"95.216.184.250","region":"18","regionName":"Uusimaa","timezone":"Europe/Helsinki","zip":"00100","continentCode":"EU","continentName":"Europe","dns":{"name":"nostr-relay.gkbrk.com","type":1,"TTL":60,"data":"95.216.184.250"}},"wss://nostr-pub1.southflorida.ninja":{"as":"AS23470 ReliableSite.Net LLC","city":"Miami","country":"United States","countryCode":"US","isp":"ReliableSite.Net LLC","lat":25.7806,"lon":-80.1826,"org":"Puebla Linemex S. De R.l. De C.V","query":"45.170.252.115","region":"FL","regionName":"Florida","timezone":"America/New_York","zip":"33132","continentCode":"NA","continentName":"North America","dns":{"name":"nostr-pub1.southflorida.ninja","type":1,"TTL":582,"data":"45.170.252.115"}},"wss://relay.orangepill.dev":{"as":"AS31898 Oracle Corporation","city":"Ashburn","country":"United States","countryCode":"US","isp":"Oracle Corporation","lat":39.018,"lon":-77.539,"org":"Oracle Cloud Infrastructure (us-ashburn-1)","query":"141.148.48.26","region":"VA","regionName":"Virginia","timezone":"America/New_York","zip":"20147","continentCode":"NA","continentName":"North America","dns":{"name":"relay.orangepill.dev","type":1,"TTL":600,"data":"141.148.48.26"}},"wss://nostr.600.wtf":{"as":"AS44925 1984 ehf","city":"Reykjavik","country":"Iceland","countryCode":"IS","isp":"1984 ehf","lat":64.1429,"lon":-21.9447,"org":"1984 ehf","query":"89.147.111.65","region":"1","regionName":"Capital Region","timezone":"Atlantic/Reykjavik","zip":"101","continentCode":"EU","continentName":"Europe","dns":{"name":"nostr.600.wtf","type":1,"TTL":300,"data":"89.147.111.65"}},"wss://zur.nostr.sx":{"as":"AS9009 M247 Europe SRL","city":"Zurich","country":"Switzerland","countryCode":"CH","isp":"Virtono Networks SRL","lat":47.3769,"lon":8.54169,"org":"Virtono Networks SRL","query":"80.97.41.17","region":"ZH","regionName":"Zurich","timezone":"Europe/Zurich","zip":"8000","continentCode":"EU","continentName":"Europe","dns":{"name":"zur.nostr.sx","type":1,"TTL":300,"data":"80.97.41.17"}},"wss://nostr.mouton.dev":{"as":"AS12876 ONLINE S.A.S.","city":"Paris","country":"France","countryCode":"FR","isp":"SCALEWAY","lat":48.8323,"lon":2.4075,"org":"ONLINE","query":"51.159.205.113","region":"IDF","regionName":"Île-de-France","timezone":"Europe/Paris","zip":"75001","continentCode":"EU","continentName":"Europe","dns":{"name":"nostrsxz4lbwe-nostr.functions.fnc.fr-par.scw.cloud","type":1,"TTL":283,"data":"51.159.205.113"}},"wss://e.nos.lol":{"as":"AS213230 Hetzner Online GmbH","city":"Ashburn","country":"United States","countryCode":"US","isp":"Hetzner Online GmbH","lat":39.0438,"lon":-77.4874,"org":"HETZNER-DC","query":"5.161.158.164","region":"VA","regionName":"Virginia","timezone":"America/New_York","zip":"20149","continentCode":"NA","continentName":"North America","dns":{"name":"e.nos.lol","type":1,"TTL":1089,"data":"5.161.158.164"}},"wss://relay.nostr.vision":{"as":"AS396982 Google LLC","city":"The Dalles","country":"United States","countryCode":"US","isp":"Google LLC","lat":45.5945,"lon":-121.1786,"org":"Google Cloud (us-west1)","query":"104.196.232.237","region":"OR","regionName":"Oregon","timezone":"America/Los_Angeles","zip":"97058","continentCode":"NA","continentName":"North America","dns":{"name":"nostream-production-185b.up.railway.app","type":1,"TTL":300,"data":"104.196.232.237"}},"wss://nostrich.friendship.tw":{"as":"AS134094 Serverfield Co., Ltd.","city":"Taichung","country":"Taiwan","countryCode":"TW","isp":"SERVERFIELD","lat":24.144,"lon":120.6844,"org":"","query":"103.103.130.148","region":"TXG","regionName":"Taichung City","timezone":"Asia/Taipei","zip":"","continentCode":"AS","continentName":"Asia","dns":{"name":"nostrich.friendship.tw","type":1,"TTL":3600,"data":"103.103.130.148"}},"wss://relay.nostrzoo.com":{"as":"AS24940 Hetzner Online GmbH","city":"Falkenstein","country":"Germany","countryCode":"DE","isp":"Hetzner Online GmbH","lat":50.475,"lon":12.365,"org":"Hetzner","query":"5.75.239.202","region":"SN","regionName":"Saxony","timezone":"Europe/Berlin","zip":"08223","continentCode":"EU","continentName":"Europe","dns":{"name":"relay.nostrzoo.com","type":1,"TTL":300,"data":"5.75.239.202"}},"wss://nostream-production-5895.up.railway.app":{"as":"AS396982 Google LLC","city":"The Dalles","country":"United States","countryCode":"US","isp":"Google LLC","lat":45.5945,"lon":-121.1786,"org":"Google Cloud (us-west1)","query":"104.196.232.237","region":"OR","regionName":"Oregon","timezone":"America/Los_Angeles","zip":"97058","continentCode":"NA","continentName":"North America","dns":{"name":"nostream-production-5895.up.railway.app","type":1,"TTL":300,"data":"104.196.232.237"}},"wss://nostream.nostr.parts":{"as":"AS14061 DigitalOcean, LLC","city":"North Bergen","country":"United States","countryCode":"US","isp":"DigitalOcean, LLC","lat":40.793,"lon":-74.0247,"org":"DigitalOcean, LLC","query":"167.172.157.217","region":"NJ","regionName":"New Jersey","timezone":"America/New_York","zip":"07047","continentCode":"NA","continentName":"North America","dns":{"name":"nostream.nostr.parts","type":1,"TTL":300,"data":"167.172.157.217"}},"wss://nostr.bitcoin.sex":{"as":"AS49544 i3D.net B.V","city":"Rotterdam","country":"Netherlands","countryCode":"NL","isp":"i3D.net B.V","lat":51.93,"lon":4.4264,"org":"Connect-to-cloud","query":"185.189.183.216","region":"ZH","regionName":"South Holland","timezone":"Europe/Amsterdam","zip":"3044","continentCode":"EU","continentName":"Europe","dns":{"name":"server.bitcoinriddle.com","type":1,"TTL":1799,"data":"185.189.183.216"}},"wss://nostr-relay.texashedge.xyz":{"as":"AS14061 DigitalOcean, LLC","city":"North Bergen","country":"United States","countryCode":"US","isp":"DigitalOcean, LLC","lat":40.793,"lon":-74.0247,"org":"DigitalOcean, LLC","query":"146.190.198.199","region":"NJ","regionName":"New Jersey","timezone":"America/New_York","zip":"07047","continentCode":"NA","continentName":"North America","dns":{"name":"nostr-relay.texashedge.xyz","type":1,"TTL":300,"data":"146.190.198.199"}},"wss://nostr.thomascdnns.com":{"as":"AS16276 OVH SAS","city":"Paris","country":"France","countryCode":"FR","isp":"OVH SAS","lat":48.8323,"lon":2.4075,"org":"OVH SAS","query":"92.222.216.223","region":"IDF","regionName":"Île-de-France","timezone":"Europe/Paris","zip":"75001","continentCode":"EU","continentName":"Europe","dns":{"name":"nostr.thomascdnns.com","type":1,"TTL":2913,"data":"92.222.216.223"}},"wss://nostr.btcmp.com":{"as":"AS31078 Alexej Senderkin","city":"Berlin","country":"Germany","countryCode":"DE","isp":"Netsign","lat":52.5108,"lon":13.2716,"org":"","query":"217.115.11.163","region":"BE","regionName":"Land Berlin","timezone":"Europe/Berlin","zip":"14050","continentCode":"EU","continentName":"Europe","dns":{"name":"nostr.btcmp.com","type":1,"TTL":82160,"data":"217.115.11.163"}},"wss://relay.nostr.africa":{"as":"AS40509 Fly.io, Inc.","city":"Chicago","country":"United States","countryCode":"US","isp":"Fly.io, Inc.","lat":41.8781,"lon":-87.6298,"org":"Fly.io, Inc.","query":"137.66.59.214","region":"IL","regionName":"Illinois","timezone":"America/Chicago","zip":"60680","continentCode":"NA","continentName":"North America","dns":{"name":"relay.nostr.africa","type":1,"TTL":300,"data":"137.66.59.214"}},"wss://ragnar-relay.com":{"as":"AS14061 DigitalOcean, LLC","city":"Clifton","country":"United States","countryCode":"US","isp":"DigitalOcean, LLC","lat":40.8364,"lon":-74.1403,"org":"DigitalOcean, LLC","query":"104.236.66.10","region":"NJ","regionName":"New Jersey","timezone":"America/New_York","zip":"07014","continentCode":"NA","continentName":"North America","dns":{"name":"ragnar-relay.com","type":1,"TTL":1799,"data":"104.236.66.10"}},"wss://nostr.zkid.social":{"as":"AS20473 The Constant Company, LLC","city":"Seoul","country":"South Korea","countryCode":"KR","isp":"The Constant Company, LLC","lat":37.5794,"lon":126.9754,"org":"The Constant Company, LLC","query":"158.247.214.153","region":"11","regionName":"Seoul","timezone":"Asia/Seoul","zip":"04524","continentCode":"AS","continentName":"Asia","dns":{"name":"nostr.zkid.social","type":1,"TTL":300,"data":"158.247.214.153"}},"wss://nostr.bitcoin-21.org":{"as":"AS13335 Cloudflare, Inc.","city":"Toronto","country":"Canada","countryCode":"CA","isp":"Cloudflare, Inc.","lat":43.6532,"lon":-79.3832,"org":"Cloudflare, Inc.","query":"172.67.159.119","region":"ON","regionName":"Ontario","timezone":"America/Toronto","zip":"M5A","continentCode":"NA","continentName":"North America","dns":{"name":"nostr.bitcoin-21.org","type":1,"TTL":300,"data":"172.67.159.119"}},"wss://nostr.com.de":{"as":"AS24940 Hetzner Online GmbH","city":"Falkenstein","country":"Germany","countryCode":"DE","isp":"Hetzner Online GmbH","lat":50.475,"lon":12.365,"org":"Hetzner","query":"5.75.230.58","region":"SN","regionName":"Saxony","timezone":"Europe/Berlin","zip":"08223","continentCode":"EU","continentName":"Europe","dns":{"name":"nostr.com.de","type":1,"TTL":150,"data":"5.75.230.58"}},"wss://eosla.com":{"as":"AS63949 Akamai Connected Cloud","city":"Singapore","country":"Singapore","countryCode":"SG","isp":"LINODE","lat":1.35208,"lon":103.82,"org":"Linode, LLC","query":"139.162.25.144","region":"03","regionName":"North West","timezone":"Asia/Singapore","zip":"858877","continentCode":"AS","continentName":"Asia","dns":{"name":"eosla.com","type":1,"TTL":600,"data":"139.162.25.144"}},"wss://nostr.data.haus":{"as":"AS3320 Deutsche Telekom AG","city":"Wiesbaden","country":"Germany","countryCode":"DE","isp":"Deutsche Telekom AG","lat":50.0705,"lon":8.2272,"org":"Deutsche Telekom AG","query":"79.207.217.227","region":"HE","regionName":"Hesse","timezone":"Europe/Berlin","zip":"65187","continentCode":"EU","continentName":"Europe","dns":{"name":"nostr.data.haus","type":1,"TTL":300,"data":"79.207.217.227"}},"wss://relay1.gems.xyz":{"as":"AS14061 DigitalOcean, LLC","city":"Santa Clara","country":"United States","countryCode":"US","isp":"DigitalOcean, LLC","lat":37.3931,"lon":-121.962,"org":"DigitalOcean, LLC","query":"137.184.85.119","region":"CA","regionName":"California","timezone":"America/Los_Angeles","zip":"95054","continentCode":"NA","continentName":"North America","dns":{"name":"relay1.gems.xyz","type":1,"TTL":300,"data":"137.184.85.119"}},"wss://nostream.nostrly.io":{"as":"AS16509 Amazon.com, Inc.","city":"Dublin","country":"United States","countryCode":"US","isp":"Amazon.com, Inc.","lat":40.0992,"lon":-83.1141,"org":"AWS EC2 (us-east-2)","query":"18.188.206.98","region":"OH","regionName":"Ohio","timezone":"America/New_York","zip":"43017","continentCode":"NA","continentName":"North America","dns":{"name":"nostream.nostrly.io","type":1,"TTL":884,"data":"18.188.206.98"}},"wss://nostrpro.xyz":{"as":"AS20473 The Constant Company, LLC","city":"Singapore","country":"Singapore","countryCode":"SG","isp":"The Constant Company","lat":1.32123,"lon":103.695,"org":"Vultr Holdings, LLC","query":"45.76.186.164","region":"05","regionName":"South West","timezone":"Asia/Singapore","zip":"627753","continentCode":"AS","continentName":"Asia","dns":{"name":"nostrpro.xyz","type":1,"TTL":60,"data":"45.76.186.164"}},"wss://relay.austrich.net":{"as":"AS63949 Akamai Connected Cloud","city":"London","country":"United Kingdom","countryCode":"GB","isp":"Akamai Technologies, Inc.","lat":51.5164,"lon":-0.093,"org":"Linode","query":"109.237.24.179","region":"ENG","regionName":"England","timezone":"Europe/London","zip":"EC2V","continentCode":"EU","continentName":"Europe","dns":{"name":"relay.austrich.net","type":1,"TTL":60,"data":"109.237.24.179"}},"wss://nostr.terminus.money":{"as":"AS14061 DigitalOcean, LLC","city":"North Bergen","country":"United States","countryCode":"US","isp":"DigitalOcean, LLC","lat":40.793,"lon":-74.0247,"org":"DigitalOcean, LLC","query":"104.248.116.105","region":"NJ","regionName":"New Jersey","timezone":"America/New_York","zip":"07047","continentCode":"NA","continentName":"North America","dns":{"name":"nostr.terminus.money","type":1,"TTL":3300,"data":"104.248.116.105"}},"wss://nostr.0ne.day":{"as":"AS13335 Cloudflare, Inc.","city":"Toronto","country":"Canada","countryCode":"CA","isp":"Cloudflare, Inc.","lat":43.6532,"lon":-79.3832,"org":"Cloudflare, Inc.","query":"172.67.72.234","region":"ON","regionName":"Ontario","timezone":"America/Toronto","zip":"M5A","continentCode":"NA","continentName":"North America","dns":{"name":"nostr.0ne.day","type":1,"TTL":300,"data":"172.67.72.234"}},"wss://relay.valera.co":{"as":"AS13335 Cloudflare, Inc.","city":"Toronto","country":"Canada","countryCode":"CA","isp":"Cloudflare, Inc.","lat":43.6532,"lon":-79.3832,"org":"Cloudflare, Inc.","query":"172.66.43.93","region":"ON","regionName":"Ontario","timezone":"America/Toronto","zip":"M5A","continentCode":"NA","continentName":"North America","dns":{"name":"relay.valera.co","type":1,"TTL":300,"data":"172.66.43.93"}},"wss://nostr.sg":{"as":"AS20473 The Constant Company, LLC","city":"Singapore","country":"Singapore","countryCode":"SG","isp":"The Constant Company","lat":1.32123,"lon":103.695,"org":"Vultr Holdings, LLC","query":"45.76.186.164","region":"05","regionName":"South West","timezone":"Asia/Singapore","zip":"627753","continentCode":"AS","continentName":"Asia","dns":{"name":"nostr.sg","type":1,"TTL":60,"data":"45.76.186.164"}},"wss://nostr.liberty.fans":{"as":"AS20115 Charter Communications","city":"City of Saint Peters","country":"United States","countryCode":"US","isp":"Charter Communications","lat":38.783,"lon":-90.6351,"org":"Spectrum","query":"71.86.10.194","region":"MO","regionName":"Missouri","timezone":"America/Chicago","zip":"63376","continentCode":"NA","continentName":"North America","dns":{"name":"nostr.liberty.fans","type":1,"TTL":2213,"data":"71.86.10.194"}},"wss://nostream.simon.snowinning.com":{"as":"AS16509 Amazon.com, Inc.","city":"Singapore","country":"Singapore","countryCode":"SG","isp":"Amazon Technologies Inc.","lat":1.28009,"lon":103.851,"org":"AWS EC2 (ap-southeast-1)","query":"18.136.207.41","region":"01","regionName":"Central Singapore","timezone":"Asia/Singapore","zip":"048582","continentCode":"AS","continentName":"Asia","dns":{"name":"nostream.simon.snowinning.com","type":1,"TTL":120,"data":"18.136.207.41"}},"wss://nostr.cro.social":{"as":"AS16276 OVH SAS","city":"Roubaix","country":"France","countryCode":"FR","isp":"OVH ISP","lat":50.6917,"lon":3.20157,"org":"OVH","query":"94.23.18.98","region":"HDF","regionName":"Hauts-de-France","timezone":"Europe/Paris","zip":"59100","continentCode":"EU","continentName":"Europe","dns":{"name":"cro.social","type":1,"TTL":3181,"data":"94.23.18.98"}},"wss://nostr01.opencult.com":{"as":"AS24940 Hetzner Online GmbH","city":"Falkenstein","country":"Germany","countryCode":"DE","isp":"Hetzner Online GmbH","lat":50.475,"lon":12.365,"org":"Hetzner Online GmbH","query":"167.235.196.94","region":"SN","regionName":"Saxony","timezone":"Europe/Berlin","zip":"08223","continentCode":"EU","continentName":"Europe","dns":{"name":"nostr01.opencult.com","type":1,"TTL":3600,"data":"167.235.196.94"}},"wss://nostr.reamde.dev":{"as":"AS14061 DigitalOcean, LLC","city":"London","country":"United Kingdom","countryCode":"GB","isp":"DigitalOcean, LLC","lat":51.5368,"lon":-0.6718,"org":"DigitalOcean, LLC","query":"143.110.172.84","region":"ENG","regionName":"England","timezone":"Europe/London","zip":"SL1","continentCode":"EU","continentName":"Europe","dns":{"name":"nostr.reamde.dev","type":1,"TTL":60,"data":"143.110.172.84"}},"wss://nostr.wine":{"as":"AS13335 Cloudflare, Inc.","city":"Toronto","country":"Canada","countryCode":"CA","isp":"Cloudflare, Inc.","lat":43.6532,"lon":-79.3832,"org":"Cloudflare, Inc.","query":"104.26.3.174","region":"ON","regionName":"Ontario","timezone":"America/Toronto","zip":"M5A","continentCode":"NA","continentName":"North America","dns":{"name":"nostr.wine","type":1,"TTL":300,"data":"104.26.3.174"}},"wss://nostr.koning-degraaf.nl":{"as":"AS15435 DELTA Fiber Nederland B.V.","city":"Heumen","country":"Netherlands","countryCode":"NL","isp":"DELTA Fiber Nederland","lat":51.7674,"lon":5.8519,"org":"CAIW Diensten BV","query":"83.128.45.254","region":"GE","regionName":"Gelderland","timezone":"Europe/Amsterdam","zip":"6582","continentCode":"EU","continentName":"Europe","dns":{"name":"koning-degraaf.nl","type":1,"TTL":60,"data":"83.128.45.254"}},"wss://nostr.pleb.network":{"as":"AS14061 DigitalOcean, LLC","city":"North Bergen","country":"United States","countryCode":"US","isp":"DigitalOcean, LLC","lat":40.793,"lon":-74.0247,"org":"Digital Ocean","query":"159.89.52.28","region":"NJ","regionName":"New Jersey","timezone":"America/New_York","zip":"07047","continentCode":"NA","continentName":"North America","dns":{"name":"nostr.pleb.network","type":1,"TTL":1400,"data":"159.89.52.28"}},"wss://nostr.cheeserobot.org":{"as":"AS24940 Hetzner Online GmbH","city":"Nuremberg","country":"Germany","countryCode":"DE","isp":"Hetzner Online GmbH","lat":49.4527,"lon":11.0783,"org":"Hetzner","query":"157.90.133.235","region":"BY","regionName":"Bavaria","timezone":"Europe/Berlin","zip":"90403","continentCode":"EU","continentName":"Europe","dns":{"name":"roquefort.cheeserobot.org","type":1,"TTL":1112,"data":"157.90.133.235"}},"wss://nostr.thank.eu":{"as":"AS205067 swissns GmbH","city":"Zurich","country":"Switzerland","countryCode":"CH","isp":"swissns GmbH","lat":47.3769,"lon":8.54169,"org":"swissns GmbH","query":"185.230.184.83","region":"ZH","regionName":"Zurich","timezone":"Europe/Zurich","zip":"8000","continentCode":"EU","continentName":"Europe","dns":{"name":"thank.eu","type":1,"TTL":86400,"data":"185.230.184.83"}},"wss://relay.hamnet.io":{"as":"AS24940 Hetzner Online GmbH","city":"Helsinki","country":"Finland","countryCode":"FI","isp":"Hetzner Online GmbH","lat":60.1797,"lon":24.9344,"org":"Hetzner Online GmbH","query":"65.109.113.117","region":"18","regionName":"Uusimaa","timezone":"Europe/Helsinki","zip":"00131","continentCode":"EU","continentName":"Europe","dns":{"name":"relay.hamnet.io","type":1,"TTL":60,"data":"65.109.113.117"}},"wss://nostr.shroomslab.net":{"as":"AS21499 Host Europe GmbH","city":"Strasbourg","country":"France","countryCode":"FR","isp":"Host Europe GmbH","lat":48.5855,"lon":7.7418,"org":"Host Europe GmbH","query":"92.205.191.2","region":"GES","regionName":"Grand Est","timezone":"Europe/Paris","zip":"67000","continentCode":"EU","continentName":"Europe","dns":{"name":"nostr.shroomslab.net","type":1,"TTL":3181,"data":"92.205.191.2"}},"wss://relay.zhix.in":{"as":"AS13335 Cloudflare, Inc.","city":"Toronto","country":"Canada","countryCode":"CA","isp":"Cloudflare, Inc.","lat":43.6532,"lon":-79.3832,"org":"Cloudflare, Inc.","query":"104.21.89.187","region":"ON","regionName":"Ontario","timezone":"America/Toronto","zip":"M5A","continentCode":"NA","continentName":"North America","dns":{"name":"relay.zhix.in","type":1,"TTL":300,"data":"104.21.89.187"}},"wss://nostr.primz.org":{"as":"AS13335 Cloudflare, Inc.","city":"Amsterdam","country":"Netherlands","countryCode":"NL","isp":"Cloudflare, Inc.","lat":52.3716,"lon":4.8883,"org":"CloudFlare, Inc.","query":"188.114.96.12","region":"NH","regionName":"North Holland","timezone":"Europe/Amsterdam","zip":"1012","continentCode":"EU","continentName":"Europe","dns":{"name":"nostr.primz.org","type":1,"TTL":300,"data":"188.114.96.12"}},"wss://nostr.truckenbucks.com":{"as":"AS13335 Cloudflare, Inc.","city":"Toronto","country":"Canada","countryCode":"CA","isp":"Cloudflare, Inc.","lat":43.6532,"lon":-79.3832,"org":"Cloudflare, Inc.","query":"104.21.31.244","region":"ON","regionName":"Ontario","timezone":"America/Toronto","zip":"M5A","continentCode":"NA","continentName":"North America","dns":{"name":"nostr.truckenbucks.com","type":1,"TTL":300,"data":"104.21.31.244"}},"wss://nostr.rajabi.ca":{"as":"AS6327 Shaw Communications Inc.","city":"Calgary","country":"Canada","countryCode":"CA","isp":"Shaw Communications Inc.","lat":50.9804,"lon":-114.1015,"org":"Shaw Communications Inc","query":"70.73.156.196","region":"AB","regionName":"Alberta","timezone":"America/Edmonton","zip":"T2V","continentCode":"NA","continentName":"North America","dns":{"name":"nostr.rajabi.ca","type":1,"TTL":1799,"data":"70.73.156.196"}},"wss://zee-relay.fly.dev":{"as":"AS40509 Fly.io, Inc.","city":"Chicago","country":"United States","countryCode":"US","isp":"Fly.io, Inc.","lat":41.8781,"lon":-87.6298,"org":"Fly.io, Inc.","query":"66.241.125.217","region":"IL","regionName":"Illinois","timezone":"America/Chicago","zip":"60680","continentCode":"NA","continentName":"North America","dns":{"name":"zee-relay.fly.dev","type":1,"TTL":300,"data":"66.241.125.217"}},"wss://nostr.blockpower.capital":{"as":"AS13335 Cloudflare, Inc.","city":"Amsterdam","country":"Netherlands","countryCode":"NL","isp":"Cloudflare, Inc.","lat":52.3716,"lon":4.8883,"org":"CloudFlare, Inc.","query":"188.114.97.12","region":"NH","regionName":"North Holland","timezone":"Europe/Amsterdam","zip":"1012","continentCode":"EU","continentName":"Europe","dns":{"name":"nostr.blockpower.capital","type":1,"TTL":300,"data":"188.114.97.12"}},"wss://eospark.com":{"as":"AS13335 Cloudflare, Inc.","city":"Toronto","country":"Canada","countryCode":"CA","isp":"Cloudflare, Inc.","lat":43.6532,"lon":-79.3832,"org":"Cloudflare, Inc.","query":"104.21.46.170","region":"ON","regionName":"Ontario","timezone":"America/Toronto","zip":"M5A","continentCode":"NA","continentName":"North America","dns":{"name":"eospark.com","type":1,"TTL":300,"data":"104.21.46.170"}},"wss://nostr.sidnlabs.nl":{"as":"AS1140 Stichting Internet Domeinregistratie Nederland","city":"Arnhem","country":"Netherlands","countryCode":"NL","isp":"Stichting Internet Domeinregistratie Nederland","lat":51.9759,"lon":5.96875,"org":"Meander 501","query":"94.198.159.51","region":"GE","regionName":"Gelderland","timezone":"Europe/Amsterdam","zip":"6825","continentCode":"EU","continentName":"Europe","dns":{"name":"nostr.sidnlabs.nl","type":1,"TTL":2937,"data":"94.198.159.51"}},"wss://nostr-rs-relay.cryptoassetssubledger.com":{"as":"AS16509 Amazon.com, Inc.","city":"Frankfurt am Main","country":"Germany","countryCode":"DE","isp":"Amazon Technologies Inc.","lat":50.1109,"lon":8.68213,"org":"AWS EC2 (eu-central-1)","query":"3.66.186.30","region":"HE","regionName":"Hesse","timezone":"Europe/Berlin","zip":"60313","continentCode":"EU","continentName":"Europe","dns":{"name":"a51012a8cf0f942e284265abf956a28d-1143312290.eu-central-1.elb.amazonaws.com","type":1,"TTL":60,"data":"3.66.186.30"}},"wss://nostr.inosta.cc":{"as":"AS31898 Oracle Corporation","city":"Paris","country":"France","countryCode":"FR","isp":"Oracle Corporation","lat":48.8323,"lon":2.4075,"org":"Oracle Corporation","query":"141.145.193.235","region":"IDF","regionName":"Île-de-France","timezone":"Europe/Paris","zip":"75001","continentCode":"EU","continentName":"Europe","dns":{"name":"nostr.inosta.cc","type":1,"TTL":300,"data":"141.145.193.235"}},"wss://nostr21.com":{"as":"AS40021 Contabo Inc.","city":"Seattle","country":"United States","countryCode":"US","isp":"Contabo Inc.","lat":47.6034,"lon":-122.3414,"org":"SC \"Lithuanian Radio and TV Center\"","query":"89.117.19.219","region":"WA","regionName":"Washington","timezone":"America/Los_Angeles","zip":"98160","continentCode":"NA","continentName":"North America","dns":{"name":"nostr21.com","type":1,"TTL":60,"data":"89.117.19.219"}},"wss://arc1.arcadelabs.co":{"as":"AS396982 Google LLC","city":"The Dalles","country":"United States","countryCode":"US","isp":"Google LLC","lat":45.5945,"lon":-121.1786,"org":"Google Cloud (us-west1)","query":"104.196.232.237","region":"OR","regionName":"Oregon","timezone":"America/Los_Angeles","zip":"97058","continentCode":"NA","continentName":"North America","dns":{"name":"nostream-production-0bde.up.railway.app","type":1,"TTL":300,"data":"104.196.232.237"}},"wss://nostr.nym.life":{"as":"AS13335 Cloudflare, Inc.","city":"Amsterdam","country":"Netherlands","countryCode":"NL","isp":"Cloudflare, Inc.","lat":52.3716,"lon":4.8883,"org":"CloudFlare, Inc.","query":"188.114.97.12","region":"NH","regionName":"North Holland","timezone":"Europe/Amsterdam","zip":"1012","continentCode":"EU","continentName":"Europe","dns":{"name":"nostr.nym.life","type":1,"TTL":300,"data":"188.114.97.12"}},"wss://relay.nostr.distrl.net":{"as":"AS14061 DigitalOcean, LLC","city":"North Bergen","country":"United States","countryCode":"US","isp":"DigitalOcean, LLC","lat":40.793,"lon":-74.0247,"org":"Digital Ocean","query":"167.99.5.215","region":"NJ","regionName":"New Jersey","timezone":"America/New_York","zip":"07047","continentCode":"NA","continentName":"North America","dns":{"name":"relay.nostr.distrl.net","type":1,"TTL":2934,"data":"167.99.5.215"}},"wss://relay.zeh.app":{"as":"AS16509 Amazon.com, Inc.","city":"Singapore","country":"Singapore","countryCode":"SG","isp":"Amazon.com, Inc.","lat":1.28009,"lon":103.851,"org":"AWS EC2 (ap-southeast-1)","query":"18.141.156.238","region":"01","regionName":"Central Singapore","timezone":"Asia/Singapore","zip":"048582","continentCode":"AS","continentName":"Asia","dns":{"name":"relay.zeh.app","type":1,"TTL":3600,"data":"18.141.156.238"}},"wss://ch1.duno.com":{"as":"AS51395 Datasource AG","city":"Zurich","country":"Switzerland","countryCode":"CH","isp":"Datasource AG","lat":47.3878,"lon":8.52029,"org":"Servinga6869","query":"185.195.69.33","region":"ZH","regionName":"Zurich","timezone":"Europe/Zurich","zip":"8005","continentCode":"EU","continentName":"Europe","dns":{"name":"ch1.duno.com","type":1,"TTL":14400,"data":"185.195.69.33"}},"wss://spore.ws":{"as":"AS13335 Cloudflare, Inc.","city":"Amsterdam","country":"Netherlands","countryCode":"NL","isp":"Cloudflare, Inc.","lat":52.3716,"lon":4.8883,"org":"CloudFlare, Inc.","query":"188.114.97.12","region":"NH","regionName":"North Holland","timezone":"Europe/Amsterdam","zip":"1012","continentCode":"EU","continentName":"Europe","dns":{"name":"spore.ws","type":1,"TTL":300,"data":"188.114.97.12"}},"wss://relay.727whisky.com":{"as":"AS174 Cogent Communications","city":"Plano","country":"United States","countryCode":"US","isp":"Cogent Communications","lat":33.1043,"lon":-96.7554,"org":"Lunanode Hosting Inc.","query":"170.75.161.45","region":"TX","regionName":"Texas","timezone":"America/Chicago","zip":"75025","continentCode":"NA","continentName":"North America","dns":{"name":"relay.727whisky.com","type":1,"TTL":600,"data":"170.75.161.45"}},"wss://nostr.ch3n2k.com":{"as":"AS852 TELUS Communications Inc.","city":"Burnaby","country":"Canada","countryCode":"CA","isp":"TELUS Communications Inc.","lat":49.2292,"lon":-122.9932,"org":"TELUS-FIBRE-VANCBC06","query":"75.157.32.200","region":"BC","regionName":"British Columbia","timezone":"America/Vancouver","zip":"V5H","continentCode":"NA","continentName":"North America","dns":{"name":"dyn.ch3n2k.com","type":1,"TTL":120,"data":"75.157.32.200"}},"wss://nostr.island.network":{"as":"AS13335 Cloudflare, Inc.","city":"San Francisco","country":"United States","countryCode":"US","isp":"Cloudflare, Inc.","lat":37.7803,"lon":-122.39,"org":"Cloudflare, Inc.","query":"172.67.214.30","region":"CA","regionName":"California","timezone":"America/Los_Angeles","zip":"94107","continentCode":"NA","continentName":"North America","dns":{"name":"nostr.island.network","type":1,"TTL":300,"data":"172.67.214.30"}},"wss://cloudnull.land":{"as":"AS14061 DigitalOcean, LLC","city":"Santa Clara","country":"United States","countryCode":"US","isp":"DigitalOcean, LLC","lat":37.3931,"lon":-121.962,"org":"DigitalOcean, LLC","query":"146.190.40.158","region":"CA","regionName":"California","timezone":"America/Los_Angeles","zip":"95054","continentCode":"NA","continentName":"North America","dns":{"name":"cloudnull.land","type":1,"TTL":3600,"data":"146.190.40.158"}},"wss://relay-dev.cowdle.gg":{"as":"AS16509 Amazon.com, Inc.","city":"London","country":"United Kingdom","countryCode":"GB","isp":"Amazon Technologies Inc.","lat":51.5074,"lon":-0.127758,"org":"AWS EC2 (eu-west-2)","query":"3.9.30.187","region":"ENG","regionName":"England","timezone":"Europe/London","zip":"W1B","continentCode":"EU","continentName":"Europe","dns":{"name":"relay-dev.cowdle.gg","type":1,"TTL":60,"data":"3.9.30.187"}},"wss://nostr.ginuerzh.xyz":{"as":"AS13335 Cloudflare, Inc.","city":"Toronto","country":"Canada","countryCode":"CA","isp":"Cloudflare, Inc.","lat":43.6532,"lon":-79.3832,"org":"Cloudflare, Inc.","query":"104.21.62.88","region":"ON","regionName":"Ontario","timezone":"America/Toronto","zip":"M5A","continentCode":"NA","continentName":"North America","dns":{"name":"nostr.ginuerzh.xyz","type":1,"TTL":300,"data":"104.21.62.88"}},"wss://nostr.nakamotosatoshi.cf":{"as":"AS16509 Amazon.com, Inc.","city":"Singapore","country":"Singapore","countryCode":"SG","isp":"Amazon Technologies Inc.","lat":1.28009,"lon":103.851,"org":"AWS EC2 (ap-southeast-1)","query":"18.142.249.217","region":"01","regionName":"Central Singapore","timezone":"Asia/Singapore","zip":"048582","continentCode":"AS","continentName":"Asia","dns":{"name":"nostr.nakamotosatoshi.cf","type":1,"TTL":300,"data":"18.142.249.217"}},"wss://relay.1bps.io":{"as":"AS13335 Cloudflare, Inc.","city":"Toronto","country":"Canada","countryCode":"CA","isp":"Cloudflare, Inc.","lat":43.6532,"lon":-79.3832,"org":"Cloudflare, Inc.","query":"172.67.182.109","region":"ON","regionName":"Ontario","timezone":"America/Toronto","zip":"M5A","continentCode":"NA","continentName":"North America","dns":{"name":"relay.1bps.io","type":1,"TTL":300,"data":"172.67.182.109"}},"wss://nostr1.saftup.xyz":{"as":"AS16509 Amazon.com, Inc.","city":"Hong Kong","country":"Hong Kong","countryCode":"HK","isp":"Amazon Technologies Inc.","lat":22.3964,"lon":114.109,"org":"AWS EC2 (ap-east-1)","query":"18.163.79.122","region":"HCW","regionName":"Central and Western","timezone":"Asia/Hong_Kong","zip":"","continentCode":"AS","continentName":"Asia","dns":{"name":"nostr1.saftup.xyz","type":1,"TTL":1799,"data":"18.163.79.122"}},"wss://relay.nostrview.com":{"as":"AS14061 DigitalOcean, LLC","city":"Frankfurt am Main","country":"Germany","countryCode":"DE","isp":"DigitalOcean, LLC","lat":50.1188,"lon":8.6843,"org":"DigitalOcean, LLC","query":"167.172.189.214","region":"HE","regionName":"Hesse","timezone":"Europe/Berlin","zip":"60313","continentCode":"EU","continentName":"Europe","dns":{"name":"relay.nostrview.com","type":1,"TTL":1800,"data":"167.172.189.214"}},"wss://relay.nostromo.social":{"as":"AS12876 ONLINE S.A.S.","city":"Vitry-sur-Seine","country":"France","countryCode":"FR","isp":"Online S.A.S.","lat":48.792,"lon":2.39851,"org":"ONLINE","query":"163.172.176.190","region":"IDF","regionName":"Île-de-France","timezone":"Europe/Paris","zip":"94400","continentCode":"EU","continentName":"Europe","dns":{"name":"relay.nostromo.social","type":1,"TTL":10800,"data":"163.172.176.190"}},"wss://1.noztr.com":{"as":"AS24940 Hetzner Online GmbH","city":"Helsinki","country":"Finland","countryCode":"FI","isp":"Hetzner Online GmbH","lat":60.1797,"lon":24.9344,"org":"Hetzner Online GmbH","query":"65.109.175.169","region":"18","regionName":"Uusimaa","timezone":"Europe/Helsinki","zip":"00131","continentCode":"EU","continentName":"Europe","dns":{"name":"noztr.com","type":1,"TTL":600,"data":"65.109.175.169"}},"wss://offchain.pub":{"as":"AS35916 MULTACOM CORPORATION","city":"Portland","country":"United States","countryCode":"US","isp":"Multacom Corporation","lat":45.5242,"lon":-122.6684,"org":"Multacom Corporation","query":"173.82.197.238","region":"OR","regionName":"Oregon","timezone":"America/Los_Angeles","zip":"97250","continentCode":"NA","continentName":"North America","dns":{"name":"offchain.pub","type":1,"TTL":300,"data":"173.82.197.238"}},"wss://nostr.nikolaj.online":{"as":"AS42541 Fiberby ApS","city":"Frederiksberg","country":"Denmark","countryCode":"DK","isp":"Fiberby ApS","lat":55.6808,"lon":12.542,"org":"Fiberby ApS","query":"185.10.223.126","region":"84","regionName":"Capital Region","timezone":"Europe/Copenhagen","zip":"1864","continentCode":"EU","continentName":"Europe","dns":{"name":"nikolaj.online","type":1,"TTL":1799,"data":"185.10.223.126"}},"wss://nostr-relay.pcdkd.fyi":{"as":"AS14061 DigitalOcean, LLC","city":"North Bergen","country":"United States","countryCode":"US","isp":"DigitalOcean, LLC","lat":40.793,"lon":-74.0247,"org":"DigitalOcean, LLC","query":"137.184.241.242","region":"NJ","regionName":"New Jersey","timezone":"America/New_York","zip":"07047","continentCode":"NA","continentName":"North America","dns":{"name":"nostr-relay.pcdkd.fyi","type":1,"TTL":1799,"data":"137.184.241.242"}},"wss://relay.nostr.wirednet.jp":{"as":"AS16509 Amazon.com, Inc.","city":"Dublin","country":"Ireland","countryCode":"IE","isp":"Amazon Technologies Inc.","lat":53.3498,"lon":-6.26031,"org":"AWS CloudFront (GLOBAL)","query":"13.32.110.73","region":"L","regionName":"Leinster","timezone":"Europe/Dublin","zip":"D02","continentCode":"EU","continentName":"Europe","dns":{"name":"relay.nostr.wirednet.jp","type":1,"TTL":60,"data":"13.32.110.73"}},"wss://nostrsxz4lbwe-nostr.functions.fnc.fr-par.scw.cloud":{"as":"AS12876 ONLINE S.A.S.","city":"Paris","country":"France","countryCode":"FR","isp":"SCALEWAY","lat":48.8323,"lon":2.4075,"org":"ONLINE","query":"51.159.205.113","region":"IDF","regionName":"Île-de-France","timezone":"Europe/Paris","zip":"75001","continentCode":"EU","continentName":"Europe","dns":{"name":"nostrsxz4lbwe-nostr.functions.fnc.fr-par.scw.cloud","type":1,"TTL":300,"data":"51.159.205.113"}},"wss://www.131.me":{"as":"AS54600 PEG TECH INC","city":"Quanzhou","country":"China","countryCode":"CN","isp":"PEG TECH INC","lat":24.7817,"lon":118.552,"org":"vpsbus","query":"198.2.211.173","region":"FJ","regionName":"Fujian","timezone":"Asia/Shanghai","zip":"610023","continentCode":"AS","continentName":"Asia","dns":{"name":"www.131.me","type":1,"TTL":600,"data":"198.2.211.173"}},"wss://nostream.unift.xyz":{"as":"AS45102 Alibaba (US) Technology Co., Ltd.","city":"Central","country":"Hong Kong","countryCode":"HK","isp":"Alibaba (US) Technology Co., Ltd.","lat":22.2908,"lon":114.1501,"org":"Alibaba.com LLC","query":"47.243.136.124","region":"HCW","regionName":"Central and Western District","timezone":"Asia/Hong_Kong","zip":"96521","continentCode":"AS","continentName":"Asia","dns":{"name":"nostream.unift.xyz","type":1,"TTL":600,"data":"47.243.136.124"}},"wss://jp-relay-nostr.invr.chat":{"as":"AS13335 Cloudflare, Inc.","city":"Amsterdam","country":"Netherlands","countryCode":"NL","isp":"Cloudflare, Inc.","lat":52.3716,"lon":4.8883,"org":"CloudFlare, Inc.","query":"188.114.97.12","region":"NH","regionName":"North Holland","timezone":"Europe/Amsterdam","zip":"1012","continentCode":"EU","continentName":"Europe","dns":{"name":"jp-relay-nostr.invr.chat","type":1,"TTL":300,"data":"188.114.97.12"}},"wss://nostr.dumpit.top":{"as":"AS13335 Cloudflare, Inc.","city":"Amsterdam","country":"Netherlands","countryCode":"NL","isp":"Cloudflare, Inc.","lat":52.3716,"lon":4.8883,"org":"CloudFlare, Inc.","query":"188.114.96.12","region":"NH","regionName":"North Holland","timezone":"Europe/Amsterdam","zip":"1012","continentCode":"EU","continentName":"Europe","dns":{"name":"nostr.dumpit.top","type":1,"TTL":300,"data":"188.114.96.12"}},"wss://nostr.test.aesyc.io":{"as":"AS24940 Hetzner Online GmbH","city":"Falkenstein","country":"Germany","countryCode":"DE","isp":"Hetzner Online GmbH","lat":50.475,"lon":12.365,"org":"Hetzner","query":"142.132.223.241","region":"SN","regionName":"Saxony","timezone":"Europe/Berlin","zip":"08223","continentCode":"EU","continentName":"Europe","dns":{"name":"nostr.test.aesyc.io","type":1,"TTL":1799,"data":"142.132.223.241"}},"wss://nostr.malin.onl":{"as":"AS13335 Cloudflare, Inc.","city":"Amsterdam","country":"Netherlands","countryCode":"NL","isp":"Cloudflare, Inc.","lat":52.3716,"lon":4.8883,"org":"CloudFlare, Inc.","query":"188.114.97.12","region":"NH","regionName":"North Holland","timezone":"Europe/Amsterdam","zip":"1012","continentCode":"EU","continentName":"Europe","dns":{"name":"nostr.malin.onl","type":1,"TTL":300,"data":"188.114.97.12"}},"wss://relay.humanumest.social":{"as":"AS16276 OVH SAS","city":"Gravelines","country":"France","countryCode":"FR","isp":"OVH SAS","lat":50.9871,"lon":2.12554,"org":"OVH","query":"135.125.90.138","region":"HDF","regionName":"Hauts-de-France","timezone":"Europe/Paris","zip":"59820","continentCode":"EU","continentName":"Europe","dns":{"name":"relay.humanumest.social","type":1,"TTL":2912,"data":"135.125.90.138"}},"wss://relay.nostr.amane.moe":{"as":"AS2514 NTT PC Communications, Inc.","city":"Chiyoda","country":"Japan","countryCode":"JP","isp":"INTERLINK","lat":35.6916,"lon":139.768,"org":"INTERLINK Co., LTD.","query":"117.102.197.171","region":"13","regionName":"Tokyo","timezone":"Asia/Tokyo","zip":"100-8111","continentCode":"AS","continentName":"Asia","dns":{"name":"tsukuba.ama.ne.jp","type":1,"TTL":300,"data":"117.102.197.171"}},"wss://nostr.21crypto.ch":{"as":"AS57370 Swisscom (Schweiz) AG","city":"Horw","country":"Switzerland","countryCode":"CH","isp":"Swisscom (Schweiz) AG","lat":47.0179,"lon":8.3064,"org":"WINGO-CUST1B1","query":"144.2.101.21","region":"LU","regionName":"Lucerne","timezone":"Europe/Zurich","zip":"6048","continentCode":"EU","continentName":"Europe","dns":{"name":"kriegalex.ddns.net","type":1,"TTL":60,"data":"144.2.101.21"}},"wss://nostr.mjex.me":{"as":"AS701 Verizon Business","city":"Horsham","country":"United States","countryCode":"US","isp":"Verizon Communications","lat":40.1792,"lon":-75.1506,"org":"MCI Communications Services, Inc. d/b/a Verizon Business","query":"108.52.157.24","region":"PA","regionName":"Pennsylvania","timezone":"America/New_York","zip":"19044","continentCode":"NA","continentName":"North America","dns":{"name":"matrix.mjex.me","type":1,"TTL":3179,"data":"108.52.157.24"}},"wss://slick.mjex.me":{"as":"AS701 Verizon Business","city":"Horsham","country":"United States","countryCode":"US","isp":"Verizon Communications","lat":40.1792,"lon":-75.1506,"org":"MCI Communications Services, Inc. d/b/a Verizon Business","query":"108.52.157.24","region":"PA","regionName":"Pennsylvania","timezone":"America/New_York","zip":"19044","continentCode":"NA","continentName":"North America","dns":{"name":"heier.io","type":1,"TTL":2926,"data":"108.52.157.24"}},"wss://nostr.21l.st":{"as":"AS14061 DigitalOcean, LLC","city":"Frankfurt am Main","country":"Germany","countryCode":"DE","isp":"DigitalOcean, LLC","lat":50.1188,"lon":8.6843,"org":"DigitalOcean, LLC","query":"68.183.78.90","region":"HE","regionName":"Hesse","timezone":"Europe/Berlin","zip":"60313","continentCode":"EU","continentName":"Europe","dns":{"name":"nostr.21l.st","type":1,"TTL":7200,"data":"68.183.78.90"}},"wss://nostr-pub.liujiale.me":{"as":"AS13335 Cloudflare, Inc.","city":"Toronto","country":"Canada","countryCode":"CA","isp":"Cloudflare, Inc.","lat":43.6532,"lon":-79.3832,"org":"Cloudflare, Inc.","query":"172.67.171.126","region":"ON","regionName":"Ontario","timezone":"America/Toronto","zip":"M5A","continentCode":"NA","continentName":"North America","dns":{"name":"nostr-pub.liujiale.me","type":1,"TTL":300,"data":"172.67.171.126"}},"wss://nostream.lucas.snowinning.com":{"as":"AS16509 Amazon.com, Inc.","city":"Singapore","country":"Singapore","countryCode":"SG","isp":"Amazon Technologies Inc.","lat":1.28009,"lon":103.851,"org":"AWS EC2 (ap-southeast-1)","query":"18.139.190.129","region":"01","regionName":"Central Singapore","timezone":"Asia/Singapore","zip":"048582","continentCode":"AS","continentName":"Asia","dns":{"name":"frp.snowinning.com","type":1,"TTL":120,"data":"18.139.190.129"}},"wss://nostream.frank.snowinning.com":{"as":"AS16509 Amazon.com, Inc.","city":"Singapore","country":"Singapore","countryCode":"SG","isp":"Amazon Technologies Inc.","lat":1.28009,"lon":103.851,"org":"AWS EC2 (ap-southeast-1)","query":"18.139.190.129","region":"01","regionName":"Central Singapore","timezone":"Asia/Singapore","zip":"048582","continentCode":"AS","continentName":"Asia","dns":{"name":"frp.snowinning.com","type":1,"TTL":120,"data":"18.139.190.129"}},"wss://nostr-relay.aapi.me":{"as":"AS13335 Cloudflare, Inc.","city":"Amsterdam","country":"Netherlands","countryCode":"NL","isp":"Cloudflare, Inc.","lat":52.3716,"lon":4.8883,"org":"CloudFlare, Inc.","query":"188.114.96.12","region":"NH","regionName":"North Holland","timezone":"Europe/Amsterdam","zip":"1012","continentCode":"EU","continentName":"Europe","dns":{"name":"nostr-relay.aapi.me","type":1,"TTL":300,"data":"188.114.96.12"}},"wss://nostr.minimue81.selfhost.co":{"as":"AS3320 Deutsche Telekom AG","city":"Rüsselsheim am Main","country":"Germany","countryCode":"DE","isp":"Deutsche Telekom AG","lat":49.9874,"lon":8.4232,"org":"Deutsche Telekom AG","query":"93.244.152.54","region":"HE","regionName":"Hesse","timezone":"Europe/Berlin","zip":"65428","continentCode":"EU","continentName":"Europe","dns":{"name":"nostr.minimue81.selfhost.co","type":1,"TTL":60,"data":"93.244.152.54"}},"wss://paid.spore.ws":{"as":"AS13335 Cloudflare, Inc.","city":"Amsterdam","country":"Netherlands","countryCode":"NL","isp":"Cloudflare, Inc.","lat":52.3716,"lon":4.8883,"org":"CloudFlare, Inc.","query":"188.114.96.12","region":"NH","regionName":"North Holland","timezone":"Europe/Amsterdam","zip":"1012","continentCode":"EU","continentName":"Europe","dns":{"name":"paid.spore.ws","type":1,"TTL":300,"data":"188.114.96.12"}},"wss://nostr.notmyhostna.me":{"as":"AS16276 OVH SAS","city":"Roubaix","country":"France","countryCode":"FR","isp":"OVH SAS","lat":50.6917,"lon":3.20157,"org":"OVH ISP","query":"91.121.100.7","region":"HDF","regionName":"Hauts-de-France","timezone":"Europe/Paris","zip":"59100","continentCode":"EU","continentName":"Europe","dns":{"name":"nostr.notmyhostna.me","type":1,"TTL":10,"data":"91.121.100.7"}},"wss://nostr.vpn1.codingmerc.com":{"as":"AS22773 Cox Communications Inc.","city":"San Diego","country":"United States","countryCode":"US","isp":"Cox Communications Inc.","lat":32.7203,"lon":-117.1552,"org":"Cox Communications Inc.","query":"68.101.236.151","region":"CA","regionName":"California","timezone":"America/Los_Angeles","zip":"92101","continentCode":"NA","continentName":"North America","dns":{"name":"ethereum.ddns.net","type":1,"TTL":60,"data":"68.101.236.151"}},"wss://relay.arsip.my.id":{"as":"AS135450 PT Berkah Solusi Teknologi Informasi","city":"Jakarta","country":"Indonesia","countryCode":"ID","isp":"PT Berkah Solusi Teknologi Informasi","lat":-6.22854,"lon":106.799,"org":"","query":"103.77.107.133","region":"JK","regionName":"Jakarta","timezone":"Asia/Jakarta","zip":"","continentCode":"AS","continentName":"Asia","dns":{"name":"relay.arsip.my.id","type":1,"TTL":3600,"data":"103.77.107.133"}},"wss://nostr.buythisdip.com":{"as":"AS396982 Google LLC","city":"The Dalles","country":"United States","countryCode":"US","isp":"Google LLC","lat":45.5945,"lon":-121.1786,"org":"Google Cloud (us-west1)","query":"34.168.22.186","region":"OR","regionName":"Oregon","timezone":"America/Los_Angeles","zip":"97058","continentCode":"NA","continentName":"North America","dns":{"name":"nostr.buythisdip.com","type":1,"TTL":600,"data":"34.168.22.186"}},"wss://arnostr.permadao.io":{"as":"AS14061 DigitalOcean, LLC","city":"Santa Clara","country":"United States","countryCode":"US","isp":"DigitalOcean, LLC","lat":37.3931,"lon":-121.962,"org":"DigitalOcean, LLC","query":"146.190.144.130","region":"CA","regionName":"California","timezone":"America/Los_Angeles","zip":"95054","continentCode":"NA","continentName":"North America","dns":{"name":"arnostr.permadao.io","type":1,"TTL":300,"data":"146.190.144.130"}},"wss://nostr.web3infra.xyz":{"as":"AS24940 Hetzner Online GmbH","city":"Falkenstein","country":"Germany","countryCode":"DE","isp":"Hetzner Online GmbH","lat":50.475,"lon":12.365,"org":"Hetzner","query":"142.132.208.254","region":"SN","regionName":"Saxony","timezone":"Europe/Berlin","zip":"08223","continentCode":"EU","continentName":"Europe","dns":{"name":"nostr.web3infra.xyz","type":1,"TTL":600,"data":"142.132.208.254"}},"wss://nostr.l00p.org":{"as":"AS24940 Hetzner Online GmbH","city":"Falkenstein","country":"Germany","countryCode":"DE","isp":"Hetzner Online GmbH","lat":50.475,"lon":12.365,"org":"Hetzner","query":"168.119.50.64","region":"SN","regionName":"Saxony","timezone":"Europe/Berlin","zip":"08223","continentCode":"EU","continentName":"Europe","dns":{"name":"nostr.l00p.org","type":1,"TTL":1800,"data":"168.119.50.64"}},"wss://relay-1.arsip.my.id":{"as":"AS55664 PT Inovasi Global Mumpuni","city":"Jakarta","country":"Indonesia","countryCode":"ID","isp":"PT Inovasi Global Mumpuni","lat":-6.23351,"lon":106.823,"org":"PT Inovasi Global Mumpuni","query":"103.236.150.45","region":"JK","regionName":"Jakarta","timezone":"Asia/Jakarta","zip":"","continentCode":"AS","continentName":"Asia","dns":{"name":"relay-1.arsip.my.id","type":1,"TTL":3277,"data":"103.236.150.45"}},"wss://nostr.forecastdao.com":{"as":"AS16509 Amazon.com, Inc.","city":"Dublin","country":"United States","countryCode":"US","isp":"Amazon.com, Inc.","lat":40.0992,"lon":-83.1141,"org":"AWS EC2 (us-east-2)","query":"3.145.49.34","region":"OH","regionName":"Ohio","timezone":"America/New_York","zip":"43017","continentCode":"NA","continentName":"North America","dns":{"name":"nostr.forecastdao.com","type":1,"TTL":882,"data":"3.145.49.34"}},"wss://quirky-bunch-isubghsvoi26fbbt3n7o.wnext.app":{"as":"AS13335 Cloudflare, Inc.","city":"Toronto","country":"Canada","countryCode":"CA","isp":"Cloudflare, Inc.","lat":43.6532,"lon":-79.3832,"org":"Cloudflare, Inc.","query":"104.26.8.156","region":"ON","regionName":"Ontario","timezone":"America/Toronto","zip":"M5A","continentCode":"NA","continentName":"North America","dns":{"name":"quirky-bunch-isubghsvoi26fbbt3n7o.wnext.app","type":1,"TTL":300,"data":"104.26.8.156"}},"wss://relay.21baiwan.com":{"as":"AS16509 Amazon.com, Inc.","city":"Dublin","country":"United States","countryCode":"US","isp":"Amazon.com, Inc.","lat":40.0992,"lon":-83.1141,"org":"AWS EC2 (us-east-2)","query":"13.59.141.93","region":"OH","regionName":"Ohio","timezone":"America/New_York","zip":"43017","continentCode":"NA","continentName":"North America","dns":{"name":"relay.21baiwan.com","type":1,"TTL":1144,"data":"13.59.141.93"}},"wss://nostr.1729.cloud":{"as":"AS24940 Hetzner Online GmbH","city":"Helsinki","country":"Finland","countryCode":"FI","isp":"Hetzner Online GmbH","lat":60.1719,"lon":24.9347,"org":"Hetzner","query":"135.181.62.179","region":"18","regionName":"Uusimaa","timezone":"Europe/Helsinki","zip":"00100","continentCode":"EU","continentName":"Europe","dns":{"name":"nostr.1729.cloud","type":1,"TTL":600,"data":"135.181.62.179"}},"wss://relay.reeve.cn":{"as":"AS132203 Tencent Building, Kejizhongyi Avenue","city":"Tokyo","country":"Japan","countryCode":"JP","isp":"Shenzhen Tencent Computer Systems Company Limited","lat":35.6761,"lon":139.6503,"org":"Tencent Cloud Computing (Beijing) Co., Ltd","query":"43.163.232.244","region":"13","regionName":"Tokyo","timezone":"Asia/Tokyo","zip":"","continentCode":"AS","continentName":"Asia","dns":{"name":"relay.reeve.cn","type":1,"TTL":600,"data":"43.163.232.244"}},"wss://nostr.monostr.com":{"as":"AS14061 DigitalOcean, LLC","city":"Amsterdam","country":"Netherlands","countryCode":"NL","isp":"DigitalOcean, LLC","lat":52.352,"lon":4.9392,"org":"DigitalOcean, LLC","query":"167.99.217.194","region":"NH","regionName":"North Holland","timezone":"Europe/Amsterdam","zip":"1098","continentCode":"EU","continentName":"Europe","dns":{"name":"nostr.monostr.com","type":1,"TTL":3179,"data":"167.99.217.194"}},"wss://cheery-paddock-rsakdrtc35c55n6yregn.wnext.app":{"as":"AS13335 Cloudflare, Inc.","city":"Toronto","country":"Canada","countryCode":"CA","isp":"Cloudflare, Inc.","lat":43.6532,"lon":-79.3832,"org":"Cloudflare, Inc.","query":"104.26.8.156","region":"ON","regionName":"Ontario","timezone":"America/Toronto","zip":"M5A","continentCode":"NA","continentName":"North America","dns":{"name":"cheery-paddock-rsakdrtc35c55n6yregn.wnext.app","type":1,"TTL":300,"data":"104.26.8.156"}},"wss://nostr.risa.zone":{"as":"AS13335 Cloudflare, Inc.","city":"Amsterdam","country":"Netherlands","countryCode":"NL","isp":"Cloudflare, Inc.","lat":52.3716,"lon":4.8883,"org":"CloudFlare, Inc.","query":"188.114.97.12","region":"NH","regionName":"North Holland","timezone":"Europe/Amsterdam","zip":"1012","continentCode":"EU","continentName":"Europe","dns":{"name":"nostr.risa.zone","type":1,"TTL":300,"data":"188.114.97.12"}},"wss://lightningrelay.com":{"as":"AS8560 IONOS SE","city":"Philadelphia","country":"United States","countryCode":"US","isp":"IONOS SE","lat":39.9557,"lon":-75.1698,"org":"IONOS Inc","query":"74.208.95.187","region":"PA","regionName":"Pennsylvania","timezone":"America/New_York","zip":"19103","continentCode":"NA","continentName":"North America","dns":{"name":"lightningrelay.com","type":1,"TTL":1800,"data":"74.208.95.187"}},"wss://relay.nostr.or.jp":{"as":"AS16509 Amazon.com, Inc.","city":"Osaka","country":"Japan","countryCode":"JP","isp":"Amazon Technologies Inc.","lat":34.6937,"lon":135.502,"org":"AWS EC2 (ap-northeast-3)","query":"13.208.83.51","region":"27","regionName":"Ōsaka","timezone":"Asia/Tokyo","zip":"540-0002","continentCode":"AS","continentName":"Asia","dns":{"name":"relay.nostr.or.jp","type":1,"TTL":300,"data":"13.208.83.51"}},"wss://nostr-sg.com":{"as":"AS16509 Amazon.com, Inc.","city":"Singapore","country":"Singapore","countryCode":"SG","isp":"Amazon Technologies Inc.","lat":1.28009,"lon":103.851,"org":"AWS EC2 (ap-southeast-1)","query":"18.138.222.21","region":"01","regionName":"Central Singapore","timezone":"Asia/Singapore","zip":"048582","continentCode":"AS","continentName":"Asia","dns":{"name":"nostr-sg.com","type":1,"TTL":600,"data":"18.138.222.21"}},"wss://bitcoinmaximalists.online":{"as":"AS24961 myLoc managed IT AG","city":"Düsseldorf","country":"Germany","countryCode":"DE","isp":"myLoc managed IT AG","lat":51.2673,"lon":6.81752,"org":"myLoc managed IT AG","query":"89.163.130.107","region":"NW","regionName":"North Rhine-Westphalia","timezone":"Europe/Berlin","zip":"40472","continentCode":"EU","continentName":"Europe","dns":{"name":"bitcoinmaximalists.online","type":1,"TTL":9449,"data":"89.163.130.107"}},"wss://nostr.rocket-tech.net":{"as":"AS31898 Oracle Corporation","city":"Phoenix","country":"United States","countryCode":"US","isp":"Oracle Corporation","lat":33.4656,"lon":-111.9956,"org":"Oracle Cloud Infrastructure (us-phoenix-1)","query":"129.146.148.201","region":"AZ","regionName":"Arizona","timezone":"America/Phoenix","zip":"85008","continentCode":"NA","continentName":"North America","dns":{"name":"nostr.rocket-tech.net","type":1,"TTL":300,"data":"129.146.148.201"}},"wss://nostream.madbean.snowinning.com":{"as":"AS16509 Amazon.com, Inc.","city":"Hong Kong","country":"Hong Kong","countryCode":"HK","isp":"Amazon.com, Inc.","lat":22.3964,"lon":114.109,"org":"AWS EC2 (ap-east-1)","query":"43.198.89.72","region":"HCW","regionName":"Central and Western","timezone":"Asia/Hong_Kong","zip":"","continentCode":"AS","continentName":"Asia","dns":{"name":"nostream.madbean.snowinning.com","type":1,"TTL":120,"data":"43.198.89.72"}},"wss://nostr.nostrelay.org":{"as":"AS14618 Amazon.com, Inc.","city":"Ashburn","country":"United States","countryCode":"US","isp":"Amazon.com, Inc.","lat":39.0438,"lon":-77.4874,"org":"AWS EC2 (us-east-1)","query":"52.87.204.100","region":"VA","regionName":"Virginia","timezone":"America/New_York","zip":"20149","continentCode":"NA","continentName":"North America","dns":{"name":"nostr.nostrelay.org","type":1,"TTL":300,"data":"52.87.204.100"}},"wss://nostr.herci.one":{"as":"AS13335 Cloudflare, Inc.","city":"San Francisco","country":"United States","countryCode":"US","isp":"Cloudflare, Inc.","lat":37.7803,"lon":-122.39,"org":"Cloudflare, Inc.","query":"172.67.221.81","region":"CA","regionName":"California","timezone":"America/Los_Angeles","zip":"94107","continentCode":"NA","continentName":"North America","dns":{"name":"nostr.herci.one","type":1,"TTL":300,"data":"172.67.221.81"}},"wss://nostrrelay.maciejz.net":{"as":"AS13335 Cloudflare, Inc.","city":"Amsterdam","country":"Netherlands","countryCode":"NL","isp":"Cloudflare, Inc.","lat":52.3716,"lon":4.8883,"org":"CloudFlare, Inc.","query":"188.114.97.12","region":"NH","regionName":"North Holland","timezone":"Europe/Amsterdam","zip":"1012","continentCode":"EU","continentName":"Europe","dns":{"name":"nostrrelay.maciejz.net","type":1,"TTL":300,"data":"188.114.97.12"}},"wss://nostr-2.afarazit.eu":{"as":"AS51167 Contabo GmbH","city":"Düsseldorf","country":"Germany","countryCode":"DE","isp":"Contabo GmbH","lat":51.1878,"lon":6.8607,"org":"Contabo GmbH","query":"161.97.135.130","region":"NW","regionName":"North Rhine-Westphalia","timezone":"Europe/Berlin","zip":"40599","continentCode":"EU","continentName":"Europe","dns":{"name":"afarazit.eu","type":1,"TTL":10378,"data":"161.97.135.130"}},"wss://nostr.lightning.contact":{"as":"AS12963 Scientific -Industrial Firm Volz Ltd","city":"Kyiv","country":"Ukraine","countryCode":"UA","isp":"Scientific -Industrial Firm \"Volz\" Ltd","lat":50.458,"lon":30.5303,"org":"Pavutina.Net Ltd","query":"176.100.29.14","region":"30","regionName":"Kyiv City","timezone":"Europe/Kyiv","zip":"03191","continentCode":"EU","continentName":"Europe","dns":{"name":"nostr.lightning.contact","type":1,"TTL":600,"data":"176.100.29.14"}},"wss://nostr.itredneck.com":{"as":"AS13335 Cloudflare, Inc.","city":"Amsterdam","country":"Netherlands","countryCode":"NL","isp":"Cloudflare, Inc.","lat":52.3716,"lon":4.8883,"org":"CloudFlare, Inc.","query":"188.114.97.12","region":"NH","regionName":"North Holland","timezone":"Europe/Amsterdam","zip":"1012","continentCode":"EU","continentName":"Europe","dns":{"name":"nostr.itredneck.com","type":1,"TTL":300,"data":"188.114.97.12"}},"wss://nostream-relay-nostr.831.pp.ua":{"as":"AS13335 Cloudflare, Inc.","city":"Toronto","country":"Canada","countryCode":"CA","isp":"Cloudflare, Inc.","lat":43.6532,"lon":-79.3832,"org":"Cloudflare, Inc.","query":"104.21.6.183","region":"ON","regionName":"Ontario","timezone":"America/Toronto","zip":"M5A","continentCode":"NA","continentName":"North America","dns":{"name":"nostream-relay-nostr.831.pp.ua","type":1,"TTL":300,"data":"104.21.6.183"}},"wss://relay.nostr.net.in":{"as":"AS63949 Akamai Connected Cloud","city":"Mumbai","country":"India","countryCode":"IN","isp":"Akamai Technologies, Inc.","lat":19.0748,"lon":72.8856,"org":"Linode","query":"170.187.248.4","region":"MH","regionName":"Maharashtra","timezone":"Asia/Kolkata","zip":"400070","continentCode":"AS","continentName":"Asia","dns":{"name":"relay.nostr.net.in","type":1,"TTL":2920,"data":"170.187.248.4"}},"wss://nostr.jiashanlu.synology.me":{"as":"AS5384 Emirates Telecommunications Corporation","city":"Dubai","country":"United Arab Emirates","countryCode":"AE","isp":"Emirates Telecommunications Corporation","lat":25.2633,"lon":55.3087,"org":"Etisalat","query":"92.98.97.111","region":"DU","regionName":"Dubai","timezone":"Asia/Dubai","zip":"","continentCode":"AS","continentName":"Asia","dns":{"name":"nostr.jiashanlu.synology.me","type":1,"TTL":30,"data":"92.98.97.111"}},"wss://private.red.gb.net":{"as":"AS31898 Oracle Corporation","city":"London","country":"United Kingdom","countryCode":"GB","isp":"Oracle Corporation","lat":51.5177,"lon":-0.6215,"org":"Oracle Cloud Infrastructure (uk-london-1)","query":"141.147.116.150","region":"ENG","regionName":"England","timezone":"Europe/London","zip":"SL1","continentCode":"EU","continentName":"Europe","dns":{"name":"red.gb.net","type":1,"TTL":300,"data":"141.147.116.150"}},"wss://nostr.thibautrey.fr":{"as":"AS13335 Cloudflare, Inc.","city":"Toronto","country":"Canada","countryCode":"CA","isp":"Cloudflare, Inc.","lat":43.6532,"lon":-79.3832,"org":"Cloudflare, Inc.","query":"104.21.44.245","region":"ON","regionName":"Ontario","timezone":"America/Toronto","zip":"M5A","continentCode":"NA","continentName":"North America","dns":{"name":"nostr.thibautrey.fr","type":1,"TTL":300,"data":"104.21.44.245"}},"wss://nostr.walletofsatoshi.com":{"as":"AS174 Cogent Communications","city":"Toronto","country":"Canada","countryCode":"CA","isp":"Cogent Communications","lat":43.7806,"lon":-79.3503,"org":"Lunanode Hosting Inc","query":"172.81.178.17","region":"ON","regionName":"Ontario","timezone":"America/Toronto","zip":"M2J","continentCode":"NA","continentName":"North America","dns":{"name":"nostr.walletofsatoshi.com","type":1,"TTL":1118,"data":"172.81.178.17"}},"wss://relay.nostrid.com":{"as":"AS46375 Sonic Telecom LLC","city":"San Francisco","country":"United States","countryCode":"US","isp":"Sonic Telecom LLC","lat":37.7833,"lon":-122.4952,"org":"Sonic.net, Inc","query":"198.27.183.151","region":"CA","regionName":"California","timezone":"America/Los_Angeles","zip":"94121","continentCode":"NA","continentName":"North America","dns":{"name":"9154081188f5.sn.mynetname.net","type":1,"TTL":60,"data":"198.27.183.151"}},"wss://nostr.kawagarbo.xyz":{"as":"AS396982 Google LLC","city":"Tokyo","country":"Japan","countryCode":"JP","isp":"Google LLC","lat":35.6761,"lon":139.6503,"org":"Google Cloud (asia-northeast1)","query":"34.85.92.177","region":"13","regionName":"Tokyo","timezone":"Asia/Tokyo","zip":"","continentCode":"AS","continentName":"Asia","dns":{"name":"nostr.kawagarbo.xyz","type":1,"TTL":178,"data":"34.85.92.177"}},"wss://relay.nostr3.io":{"as":"AS16509 Amazon.com, Inc.","city":"Singapore","country":"Singapore","countryCode":"SG","isp":"Amazon Technologies Inc.","lat":1.28009,"lon":103.851,"org":"AWS EC2 (ap-southeast-1)","query":"13.214.158.126","region":"01","regionName":"Central Singapore","timezone":"Asia/Singapore","zip":"048582","continentCode":"AS","continentName":"Asia","dns":{"name":"relay.nostr3.io","type":1,"TTL":1113,"data":"13.214.158.126"}},"wss://nostr-relay.xbytez.io":{"as":"AS16276 OVH SAS","city":"Roubaix","country":"France","countryCode":"FR","isp":"OVH ISP","lat":50.6927,"lon":3.17785,"org":"OVH BV","query":"94.23.149.220","region":"HDF","regionName":"Hauts-de-France","timezone":"Europe/Paris","zip":"59100","continentCode":"EU","continentName":"Europe","dns":{"name":"xbytez.io","type":1,"TTL":120,"data":"94.23.149.220"}},"wss://nostr.fluidtrack.in":{"as":"AS13335 Cloudflare, Inc.","city":"Toronto","country":"Canada","countryCode":"CA","isp":"Cloudflare, Inc.","lat":43.6532,"lon":-79.3832,"org":"Cloudflare, Inc.","query":"172.67.145.206","region":"ON","regionName":"Ontario","timezone":"America/Toronto","zip":"M5A","continentCode":"NA","continentName":"North America","dns":{"name":"nostr.fluidtrack.in","type":1,"TTL":300,"data":"172.67.145.206"}},"wss://relay.nosbin.com":{"as":"AS13335 Cloudflare, Inc.","city":"Amsterdam","country":"Netherlands","countryCode":"NL","isp":"Cloudflare, Inc.","lat":52.3716,"lon":4.8883,"org":"CloudFlare, Inc.","query":"188.114.97.12","region":"NH","regionName":"North Holland","timezone":"Europe/Amsterdam","zip":"1012","continentCode":"EU","continentName":"Europe","dns":{"name":"relay.nosbin.com","type":1,"TTL":300,"data":"188.114.97.12"}},"wss://rasca.asnubes.art":{"as":"AS3352 TELEFONICA DE ESPANA S.A.U.","city":"Ourense","country":"Spain","countryCode":"ES","isp":"Telefonica de Espana SAU","lat":42.3366,"lon":-7.8691,"org":"RIMA (Red IP Multi Acceso)","query":"83.34.97.11","region":"GA","regionName":"Galicia","timezone":"Europe/Madrid","zip":"32001","continentCode":"EU","continentName":"Europe","dns":{"name":"rasca.asnubes.art","type":1,"TTL":1799,"data":"83.34.97.11"}},"wss://nostr.beta3.dev":{"as":"AS16509 Amazon.com, Inc.","city":"Singapore","country":"Singapore","countryCode":"SG","isp":"Amazon.com, Inc.","lat":1.28009,"lon":103.851,"org":"AWS EC2 (ap-southeast-1)","query":"52.221.108.117","region":"01","regionName":"Central Singapore","timezone":"Asia/Singapore","zip":"048582","continentCode":"AS","continentName":"Asia","dns":{"name":"k8s-mpc-supercas-3bd321dd37-523124903.ap-southeast-1.elb.amazonaws.com","type":1,"TTL":60,"data":"52.221.108.117"}},"wss://nostr.uthark.com":{"as":"AS213230 Hetzner Online GmbH","city":"Ashburn","country":"United States","countryCode":"US","isp":"Hetzner Online GmbH","lat":39.0438,"lon":-77.4874,"org":"HETZNER-DC","query":"5.161.97.197","region":"VA","regionName":"Virginia","timezone":"America/New_York","zip":"20149","continentCode":"NA","continentName":"North America","dns":{"name":"nostr.uthark.com","type":1,"TTL":1800,"data":"5.161.97.197"}},"wss://nostr.cruncher.com":{"as":"AS24940 Hetzner Online GmbH","city":"Helsinki","country":"Finland","countryCode":"FI","isp":"Hetzner Online GmbH","lat":60.1719,"lon":24.9347,"org":"Hetzner","query":"135.181.214.246","region":"18","regionName":"Uusimaa","timezone":"Europe/Helsinki","zip":"00100","continentCode":"EU","continentName":"Europe","dns":{"name":"data.cruncher.com","type":1,"TTL":300,"data":"135.181.214.246"}},"wss://relay.jig.works":{"as":"AS396982 Google LLC","city":"The Dalles","country":"United States","countryCode":"US","isp":"Google LLC","lat":45.5945,"lon":-121.1786,"org":"Google Cloud (us-west1)","query":"104.196.232.237","region":"OR","regionName":"Oregon","timezone":"America/Los_Angeles","zip":"97058","continentCode":"NA","continentName":"North America","dns":{"name":"nex-production.up.railway.app","type":1,"TTL":300,"data":"104.196.232.237"}},"wss://nostr.foundrydigital.com":{"as":"AS20278 Nexeon Technologies, Inc.","city":"West Chicago","country":"United States","countryCode":"US","isp":"Nexeon Technologies, Inc.","lat":41.8879,"lon":-88.1995,"org":"Nexeon Technologies, Inc.","query":"64.44.60.124","region":"IL","regionName":"Illinois","timezone":"America/Chicago","zip":"60185","continentCode":"NA","continentName":"North America","dns":{"name":"nostr.foundrydigital.com","type":1,"TTL":300,"data":"64.44.60.124"}},"wss://nostr.chainofimmortals.net":{"as":"AS396982 Google LLC","city":"Los Angeles","country":"United States","countryCode":"US","isp":"Google LLC","lat":34.0522,"lon":-118.2436,"org":"Google Cloud (us-west2)","query":"34.94.4.83","region":"CA","regionName":"California","timezone":"America/Los_Angeles","zip":"","continentCode":"NA","continentName":"North America","dns":{"name":"nostr.chainofimmortals.net","type":1,"TTL":2913,"data":"34.94.4.83"}},"wss://relay.nostrcheck.me":{"as":"AS8560 IONOS SE","city":"Essen","country":"Germany","countryCode":"DE","isp":"IONOS","lat":51.4556,"lon":7.01156,"org":"","query":"217.160.57.193","region":"NW","regionName":"North Rhine-Westphalia","timezone":"Europe/Berlin","zip":"45127","continentCode":"EU","continentName":"Europe","dns":{"name":"relay.nostrcheck.me","type":1,"TTL":1113,"data":"217.160.57.193"}},"wss://nostr.rbel.co":{"as":"AS20473 The Constant Company, LLC","city":"Amsterdam","country":"Netherlands","countryCode":"NL","isp":"The Constant Company","lat":52.3891,"lon":4.6563,"org":"Vultr Holdings LLC Amsterdam","query":"199.247.26.123","region":"NH","regionName":"North Holland","timezone":"Europe/Amsterdam","zip":"2031","continentCode":"EU","continentName":"Europe","dns":{"name":"vultr1.rbel.co","type":1,"TTL":300,"data":"199.247.26.123"}},"wss://nostro.online":{"as":"AS13335 Cloudflare, Inc.","city":"Amsterdam","country":"Netherlands","countryCode":"NL","isp":"Cloudflare, Inc.","lat":52.3716,"lon":4.8883,"org":"CloudFlare, Inc.","query":"188.114.97.12","region":"NH","regionName":"North Holland","timezone":"Europe/Amsterdam","zip":"1012","continentCode":"EU","continentName":"Europe","dns":{"name":"nostro.online","type":1,"TTL":300,"data":"188.114.97.12"}},"wss://nostrelay.yeghro.site":{"as":"AS13335 Cloudflare, Inc.","city":"Amsterdam","country":"Netherlands","countryCode":"NL","isp":"Cloudflare, Inc.","lat":52.3716,"lon":4.8883,"org":"CloudFlare, Inc.","query":"188.114.96.12","region":"NH","regionName":"North Holland","timezone":"Europe/Amsterdam","zip":"1012","continentCode":"EU","continentName":"Europe","dns":{"name":"nostrelay.yeghro.site","type":1,"TTL":300,"data":"188.114.96.12"}},"wss://nostr.jatm.link":{"as":"AS9443 Vocus Retail","city":"Melbourne","country":"Australia","countryCode":"AU","isp":"Vocus PTY LTD","lat":-37.8411,"lon":144.9799,"org":"","query":"125.168.11.166","region":"VIC","regionName":"Victoria","timezone":"Australia/Melbourne","zip":"3004","continentCode":"OC","continentName":"Oceania","dns":{"name":"nostr.jatm.link","type":1,"TTL":300,"data":"125.168.11.166"}},"wss://nostr2.rbel.co":{"as":"AS14061 DigitalOcean, LLC","city":"Frankfurt am Main","country":"Germany","countryCode":"DE","isp":"DigitalOcean, LLC","lat":50.1188,"lon":8.6843,"org":"DigitalOcean, LLC","query":"134.122.65.200","region":"HE","regionName":"Hesse","timezone":"Europe/Berlin","zip":"60313","continentCode":"EU","continentName":"Europe","dns":{"name":"exit.rbel.co","type":1,"TTL":300,"data":"134.122.65.200"}},"wss://relay.nostr.vet":{"as":"AS13335 Cloudflare, Inc.","city":"Toronto","country":"Canada","countryCode":"CA","isp":"Cloudflare, Inc.","lat":43.6532,"lon":-79.3832,"org":"Cloudflare, Inc.","query":"104.21.27.95","region":"ON","regionName":"Ontario","timezone":"America/Toronto","zip":"M5A","continentCode":"NA","continentName":"North America","dns":{"name":"relay.nostr.vet","type":1,"TTL":300,"data":"104.21.27.95"}},"wss://nostr-relay.app.ikeji.ma":{"as":"AS59103 SoftEther Corporation","city":"Chiyoda","country":"Japan","countryCode":"JP","isp":"SoftEther Corporation","lat":35.694,"lon":139.754,"org":"SoftEther Corporation","query":"103.41.62.181","region":"13","regionName":"Tokyo","timezone":"Asia/Tokyo","zip":"100-0001","continentCode":"AS","continentName":"Asia","dns":{"name":"nostr-relay.app.ikeji.ma","type":1,"TTL":180,"data":"103.41.62.181"}},"wss://nostro.cc":{"as":"AS20473 The Constant Company, LLC","city":"Shinagawa","country":"Japan","countryCode":"JP","isp":"The Constant Company","lat":35.6092,"lon":139.73,"org":"TYO Vultr","query":"202.182.110.13","region":"13","regionName":"Tokyo","timezone":"Asia/Tokyo","zip":"141-0033","continentCode":"AS","continentName":"Asia","dns":{"name":"nostro.cc","type":1,"TTL":4590,"data":"202.182.110.13"}},"wss://nostr.yuv.al":{"as":"AS16509 Amazon.com, Inc.","city":"Dublin","country":"Ireland","countryCode":"IE","isp":"Amazon Technologies Inc.","lat":53.3498,"lon":-6.26031,"org":"AWS EC2 (eu-west-1)","query":"52.51.194.59","region":"L","regionName":"Leinster","timezone":"Europe/Dublin","zip":"D02","continentCode":"EU","continentName":"Europe","dns":{"name":"nostr.yuv.al","type":1,"TTL":300,"data":"52.51.194.59"}},"wss://nostr.zxcvbn.space":{"as":"AS210630 IncogNET LLC","city":"Naaldwijk","country":"Netherlands","countryCode":"NL","isp":"IncogNET LLC","lat":51.9981,"lon":4.198,"org":"IncogNET LLC","query":"23.137.250.204","region":"ZH","regionName":"South Holland","timezone":"Europe/Amsterdam","zip":"2671","continentCode":"EU","continentName":"Europe","dns":{"name":"chat.zxcvbn.space","type":1,"TTL":900,"data":"23.137.250.204"}},"wss://relay.lacosanostr.com":{"as":"AS14061 DigitalOcean, LLC","city":"North Bergen","country":"United States","countryCode":"US","isp":"DigitalOcean, LLC","lat":40.793,"lon":-74.0247,"org":"DigitalOcean, LLC","query":"142.93.59.133","region":"NJ","regionName":"New Jersey","timezone":"America/New_York","zip":"07047","continentCode":"NA","continentName":"North America","dns":{"name":"relay.lacosanostr.com","type":1,"TTL":1113,"data":"142.93.59.133"}},"wss://lbrygen.xyz":{"as":"AS51167 Contabo GmbH","city":"Nuremberg","country":"Germany","countryCode":"DE","isp":"Contabo GmbH","lat":49.405,"lon":11.1617,"org":"Contabo GmbH","query":"161.97.103.194","region":"BY","regionName":"Bavaria","timezone":"Europe/Berlin","zip":"90475","continentCode":"EU","continentName":"Europe","dns":{"name":"lbrygen.xyz","type":1,"TTL":1376,"data":"161.97.103.194"}},"wss://nostr.robotesc.ro":{"as":"AS14061 DigitalOcean, LLC","city":"Frankfurt am Main","country":"Germany","countryCode":"DE","isp":"DigitalOcean, LLC","lat":50.1188,"lon":8.6843,"org":"DigitalOcean, LLC","query":"164.90.215.35","region":"HE","regionName":"Hesse","timezone":"Europe/Berlin","zip":"60313","continentCode":"EU","continentName":"Europe","dns":{"name":"nostr.robotesc.ro","type":1,"TTL":3600,"data":"164.90.215.35"}},"wss://relay.nostrdocs.com":{"as":"AS14061 DigitalOcean, LLC","city":"Toronto","country":"Canada","countryCode":"CA","isp":"DigitalOcean, LLC","lat":43.6547,"lon":-79.3623,"org":"DigitalOcean, LLC","query":"143.198.44.58","region":"ON","regionName":"Ontario","timezone":"America/Toronto","zip":"M5A","continentCode":"NA","continentName":"North America","dns":{"name":"relay.nostrdocs.com","type":1,"TTL":3177,"data":"143.198.44.58"}},"wss://nostrue.com":{"as":"AS14061 DigitalOcean, LLC","city":"North Bergen","country":"United States","countryCode":"US","isp":"DigitalOcean, LLC","lat":40.793,"lon":-74.0247,"org":"DigitalOcean, LLC","query":"161.35.107.124","region":"NJ","regionName":"New Jersey","timezone":"America/New_York","zip":"07047","continentCode":"NA","continentName":"North America","dns":{"name":"nostrue.com","type":1,"TTL":3600,"data":"161.35.107.124"}},"wss://nostr.danvergara.com":{"as":"AS14061 DigitalOcean, LLC","city":"North Bergen","country":"United States","countryCode":"US","isp":"DigitalOcean, LLC","lat":40.793,"lon":-74.0247,"org":"DigitalOcean, LLC","query":"24.199.90.89","region":"NJ","regionName":"New Jersey","timezone":"America/New_York","zip":"07047","continentCode":"NA","continentName":"North America","dns":{"name":"nostr.danvergara.com","type":1,"TTL":192,"data":"24.199.90.89"}},"wss://n.xmr.se":{"as":"AS61072 EZNet LIMITED","city":"Berlin","country":"Germany","countryCode":"DE","isp":"EZNet LIMITED","lat":52.4923,"lon":13.4344,"org":"Electrum Technologies GmbH","query":"45.154.252.164","region":"BE","regionName":"Land Berlin","timezone":"Europe/Berlin","zip":"10999","continentCode":"EU","continentName":"Europe","dns":{"name":"n.xmr.se","type":1,"TTL":300,"data":"45.154.252.164"}},"wss://nostr-us.coinfundit.com":{"as":"AS13335 Cloudflare, Inc.","city":"Toronto","country":"Canada","countryCode":"CA","isp":"Cloudflare, Inc.","lat":43.6532,"lon":-79.3832,"org":"Cloudflare, Inc.","query":"172.66.43.33","region":"ON","regionName":"Ontario","timezone":"America/Toronto","zip":"M5A","continentCode":"NA","continentName":"North America","dns":{"name":"nostr-us.coinfundit.com","type":1,"TTL":300,"data":"172.66.43.33"}},"wss://nostr-eu.coinfundit.com":{"as":"AS13335 Cloudflare, Inc.","city":"Toronto","country":"Canada","countryCode":"CA","isp":"Cloudflare, Inc.","lat":43.6532,"lon":-79.3832,"org":"Cloudflare, Inc.","query":"172.66.43.33","region":"ON","regionName":"Ontario","timezone":"America/Toronto","zip":"M5A","continentCode":"NA","continentName":"North America","dns":{"name":"nostr-eu.coinfundit.com","type":1,"TTL":300,"data":"172.66.43.33"}},"wss://nostramsterdam.vpx.moe":{"as":"AS20473 The Constant Company, LLC","city":"Lelystad-Haven","country":"Netherlands","countryCode":"NL","isp":"The Constant Company, LLC","lat":52.5147,"lon":5.44019,"org":"Anycast1","query":"185.103.200.30","region":"FL","regionName":"Flevoland","timezone":"Europe/Amsterdam","zip":"8242","continentCode":"EU","continentName":"Europe","dns":{"name":"nostramsterdam.vpx.moe","type":1,"TTL":300,"data":"185.103.200.30"}},"wss://alphapanda.pro":{"as":"AS14618 Amazon.com, Inc.","city":"Ashburn","country":"United States","countryCode":"US","isp":"Amazon.com, Inc.","lat":39.0438,"lon":-77.4874,"org":"AWS EC2 (us-east-1)","query":"54.174.110.152","region":"VA","regionName":"Virginia","timezone":"America/New_York","zip":"20149","continentCode":"NA","continentName":"North America","dns":{"name":"alphapanda.pro","type":1,"TTL":1109,"data":"54.174.110.152"}},"wss://nproxy.kristapsk.lv":{"as":"AS24940 Hetzner Online GmbH","city":"Helsinki","country":"Finland","countryCode":"FI","isp":"Hetzner Online GmbH","lat":60.1719,"lon":24.9347,"org":"HETZNER-DC","query":"95.216.174.115","region":"18","regionName":"Uusimaa","timezone":"Europe/Helsinki","zip":"00100","continentCode":"EU","continentName":"Europe","dns":{"name":"nproxy.kristapsk.lv","type":1,"TTL":2914,"data":"95.216.174.115"}},"wss://nstrs.fly.dev":{"as":"AS40509 Fly.io, Inc.","city":"Chicago","country":"United States","countryCode":"US","isp":"Fly.io, Inc.","lat":41.8781,"lon":-87.6298,"org":"Fly.io, Inc.","query":"66.241.124.123","region":"IL","regionName":"Illinois","timezone":"America/Chicago","zip":"60680","continentCode":"NA","continentName":"North America","dns":{"name":"nstrs.fly.dev","type":1,"TTL":300,"data":"66.241.124.123"}},"wss://nostr.zue.news":{"as":"AS13335 Cloudflare, Inc.","city":"Amsterdam","country":"Netherlands","countryCode":"NL","isp":"Cloudflare, Inc.","lat":52.3716,"lon":4.8883,"org":"CloudFlare, Inc.","query":"188.114.97.12","region":"NH","regionName":"North Holland","timezone":"Europe/Amsterdam","zip":"1012","continentCode":"EU","continentName":"Europe","dns":{"name":"nostr.zue.news","type":1,"TTL":300,"data":"188.114.97.12"}},"wss://nostream.megadope.snowinning.com":{"as":"AS16509 Amazon.com, Inc.","city":"Singapore","country":"Singapore","countryCode":"SG","isp":"Amazon Technologies Inc.","lat":1.28009,"lon":103.851,"org":"AWS EC2 (ap-southeast-1)","query":"13.229.200.174","region":"01","regionName":"Central Singapore","timezone":"Asia/Singapore","zip":"048582","continentCode":"AS","continentName":"Asia","dns":{"name":"nostream.megadope.snowinning.com","type":1,"TTL":120,"data":"13.229.200.174"}},"wss://fiatdenier.com":{"as":"AS63949 Akamai Connected Cloud","city":"Atlanta","country":"United States","countryCode":"US","isp":"Akamai Technologies, Inc.","lat":33.7485,"lon":-84.3871,"org":"Linode","query":"143.42.129.166","region":"GA","regionName":"Georgia","timezone":"America/New_York","zip":"30301","continentCode":"NA","continentName":"North America","dns":{"name":"fiatdenier.com","type":1,"TTL":81320,"data":"143.42.129.166"}},"wss://nostr.topeth.info":{"as":"AS396982 Google LLC","city":"Council Bluffs","country":"United States","countryCode":"US","isp":"Google LLC","lat":41.2619,"lon":-95.8608,"org":"Google Cloud (us-central1)","query":"34.72.235.201","region":"IA","regionName":"Iowa","timezone":"America/Chicago","zip":"","continentCode":"NA","continentName":"North America","dns":{"name":"nostr.topeth.info","type":1,"TTL":600,"data":"34.72.235.201"}},"wss://nostr.klabo.blog":{"as":"AS8075 Microsoft Corporation","city":"Quincy","country":"United States","countryCode":"US","isp":"Microsoft Corporation","lat":47.233,"lon":-119.852,"org":"Microsoft Azure Cloud (westus2)","query":"20.125.61.189","region":"WA","regionName":"Washington","timezone":"America/Los_Angeles","zip":"98848","continentCode":"NA","continentName":"North America","dns":{"name":"nostr.klabo.blog","type":1,"TTL":1799,"data":"20.125.61.189"}},"wss://nostr.mwmdev.com":{"as":"AS3243 MEO - SERVICOS DE COMUNICACOES E MULTIMEDIA S.A.","city":"Lisbon","country":"Portugal","countryCode":"PT","isp":"PT Comunicacoes S.A","lat":38.731,"lon":-9.1373,"org":"PT Comunicacoes S.A.","query":"85.241.157.89","region":"11","regionName":"Lisbon","timezone":"Europe/Lisbon","zip":"1000-001","continentCode":"EU","continentName":"Europe","dns":{"name":"cloudio.mwmdev.com","type":1,"TTL":60,"data":"85.241.157.89"}},"wss://nostr-dev.wellorder.net":{"as":"AS63949 Akamai Connected Cloud","city":"Richardson","country":"United States","countryCode":"US","isp":"Akamai Technologies, Inc.","lat":32.9473,"lon":-96.7028,"org":"Linode","query":"50.116.30.242","region":"TX","regionName":"Texas","timezone":"America/Chicago","zip":"75081","continentCode":"NA","continentName":"North America","dns":{"name":"wellorder.net","type":1,"TTL":28800,"data":"50.116.30.242"}},"wss://nostr.lnprivate.network":{"as":"AS20473 The Constant Company, LLC","city":"Shinagawa","country":"Japan","countryCode":"JP","isp":"The Constant Company","lat":35.6092,"lon":139.73,"org":"Vultr Holdings, LLC","query":"45.76.102.169","region":"13","regionName":"Tokyo","timezone":"Asia/Tokyo","zip":"141-0033","continentCode":"AS","continentName":"Asia","dns":{"name":"nostr.lnprivate.network","type":1,"TTL":300,"data":"45.76.102.169"}},"wss://nostr.bitcoiner.social":{"as":"AS36352 ColoCrossing","city":"Dallas","country":"United States","countryCode":"US","isp":"ColoCrossing","lat":32.7767,"lon":-96.797,"org":"RackNerd LLC","query":"23.95.43.239","region":"TX","regionName":"Texas","timezone":"America/Chicago","zip":"75270","continentCode":"NA","continentName":"North America","dns":{"name":"nostr.bitcoiner.social","type":1,"TTL":300,"data":"23.95.43.239"}},"wss://public.nostr.swissrouting.com":{"as":"AS59642 UAB Cherry Servers","city":"Amsterdam","country":"Netherlands","countryCode":"NL","isp":"UAB Cherry Servers","lat":52.3676,"lon":4.90414,"org":"CloudVPS","query":"84.32.190.6","region":"NH","regionName":"North Holland","timezone":"Europe/Amsterdam","zip":"1012","continentCode":"EU","continentName":"Europe","dns":{"name":"public.nostr.swissrouting.com","type":1,"TTL":300,"data":"84.32.190.6"}},"wss://relay.kronkltd.net":{"as":"AS14061 DigitalOcean, LLC","city":"Clifton","country":"United States","countryCode":"US","isp":"DigitalOcean, LLC","lat":40.8364,"lon":-74.1403,"org":"DigitalOcean, LLC","query":"143.244.222.111","region":"NJ","regionName":"New Jersey","timezone":"America/New_York","zip":"07014","continentCode":"NA","continentName":"North America","dns":{"name":"relay.kronkltd.net","type":1,"TTL":3378,"data":"143.244.222.111"}},"wss://relay.orange-crush.com":{"as":"AS204770 UAB Cherry Servers","city":"Vilnius","country":"Lithuania","countryCode":"LT","isp":"UAB Cherry Servers","lat":54.6681,"lon":25.2559,"org":"VPS IPs","query":"84.32.34.31","region":"VL","regionName":"Vilnius","timezone":"Europe/Vilnius","zip":"03142","continentCode":"EU","continentName":"Europe","dns":{"name":"relay.orange-crush.com","type":1,"TTL":300,"data":"84.32.34.31"}},"wss://nostr.bitcoinbay.engineering":{"as":"AS14061 DigitalOcean, LLC","city":"Clifton","country":"United States","countryCode":"US","isp":"DigitalOcean, LLC","lat":40.8364,"lon":-74.1403,"org":"DigitalOcean, LLC","query":"64.225.50.85","region":"NJ","regionName":"New Jersey","timezone":"America/New_York","zip":"07014","continentCode":"NA","continentName":"North America","dns":{"name":"nostr.bitcoinbay.engineering","type":1,"TTL":1107,"data":"64.225.50.85"}},"wss://nostr.spaceshell.xyz":{"as":"AS13335 Cloudflare, Inc.","city":"Amsterdam","country":"Netherlands","countryCode":"NL","isp":"Cloudflare, Inc.","lat":52.3716,"lon":4.8883,"org":"CloudFlare, Inc.","query":"188.114.96.12","region":"NH","regionName":"North Holland","timezone":"Europe/Amsterdam","zip":"1012","continentCode":"EU","continentName":"Europe","dns":{"name":"nostr.spaceshell.xyz","type":1,"TTL":300,"data":"188.114.96.12"}},"wss://nostr.fediverse.jp":{"as":"AS20473 The Constant Company, LLC","city":"Tokyo","country":"Japan","countryCode":"JP","isp":"The Constant Company, LLC","lat":35.6895,"lon":139.692,"org":"Choopa, LLC","query":"167.179.98.20","region":"13","regionName":"Tokyo","timezone":"Asia/Tokyo","zip":"96337","continentCode":"AS","continentName":"Asia","dns":{"name":"nginx-ingress.fork.ms","type":1,"TTL":300,"data":"167.179.98.20"}},"wss://nostr.screaminglife.io":{"as":"AS16509 Amazon.com, Inc.","city":"San Jose","country":"United States","countryCode":"US","isp":"Amazon.com, Inc.","lat":37.3394,"lon":-121.895,"org":"AWS EC2 (us-west-1)","query":"52.8.156.42","region":"CA","regionName":"California","timezone":"America/Los_Angeles","zip":"95141","continentCode":"NA","continentName":"North America","dns":{"name":"nostr.screaminglife.io","type":1,"TTL":1200,"data":"52.8.156.42"}},"wss://nostr.roundrockbitcoiners.com":{"as":"AS14061 DigitalOcean, LLC","city":"North Bergen","country":"United States","countryCode":"US","isp":"DigitalOcean, LLC","lat":40.793,"lon":-74.0247,"org":"DigitalOcean, LLC","query":"137.184.108.195","region":"NJ","regionName":"New Jersey","timezone":"America/New_York","zip":"07047","continentCode":"NA","continentName":"North America","dns":{"name":"nostr.roundrockbitcoiners.com","type":1,"TTL":644,"data":"137.184.108.195"}},"wss://relay.f7z.io":{"as":"AS14061 DigitalOcean, LLC","city":"London","country":"United Kingdom","countryCode":"GB","isp":"DigitalOcean, LLC","lat":51.5368,"lon":-0.6718,"org":"DigitalOcean, LLC","query":"157.245.32.159","region":"ENG","regionName":"England","timezone":"Europe/London","zip":"SL1","continentCode":"EU","continentName":"Europe","dns":{"name":"relay.f7z.io","type":1,"TTL":1852,"data":"157.245.32.159"}},"wss://nostr.shawnyeager.net":{"as":"AS396982 Google LLC","city":"The Dalles","country":"United States","countryCode":"US","isp":"Google LLC","lat":45.5945,"lon":-121.1786,"org":"Google Cloud (us-west1)","query":"104.196.232.237","region":"OR","regionName":"Oregon","timezone":"America/Los_Angeles","zip":"97058","continentCode":"NA","continentName":"North America","dns":{"name":"nostream-prod.up.railway.app","type":1,"TTL":300,"data":"104.196.232.237"}},"wss://relay.nostriches.org":{"as":"AS63949 Akamai Connected Cloud","city":"Richardson","country":"United States","countryCode":"US","isp":"Akamai Technologies, Inc.","lat":32.9473,"lon":-96.7028,"org":"Linode","query":"45.79.34.32","region":"TX","regionName":"Texas","timezone":"America/Chicago","zip":"75081","continentCode":"NA","continentName":"North America","dns":{"name":"relay.nostriches.org","type":1,"TTL":600,"data":"45.79.34.32"}},"wss://relay.snort.social":{"as":"AS13335 Cloudflare, Inc.","city":"Toronto","country":"Canada","countryCode":"CA","isp":"Cloudflare, Inc.","lat":43.6532,"lon":-79.3832,"org":"Cloudflare, Inc.","query":"172.67.71.169","region":"ON","regionName":"Ontario","timezone":"America/Toronto","zip":"M5A","continentCode":"NA","continentName":"North America","dns":{"name":"relay.snort.social","type":1,"TTL":300,"data":"172.67.71.169"}},"wss://nostr.arguflow.gg":{"as":"AS397273 Render","city":"San Francisco","country":"United States","countryCode":"US","isp":"Render","lat":37.7775,"lon":-122.397,"org":"Render","query":"216.24.57.253","region":"CA","regionName":"California","timezone":"America/Los_Angeles","zip":"94107","continentCode":"NA","continentName":"North America","dns":{"name":"nostr-ts-relay.onrender.com.cdn.cloudflare.net","type":1,"TTL":300,"data":"216.24.57.253"}},"wss://nostr.sectiontwo.org":{"as":"AS7992 Cogeco Cable","city":"Burlington","country":"Canada","countryCode":"CA","isp":"Cogeco Communications Inc.","lat":43.3806,"lon":-79.886,"org":"Cogeco Cable Canada Inc","query":"24.141.128.111","region":"ON","regionName":"Ontario","timezone":"America/Toronto","zip":"L7P","continentCode":"NA","continentName":"North America","dns":{"name":"nostr.sectiontwo.org","type":1,"TTL":1799,"data":"24.141.128.111"}},"wss://nostr-au.coinfundit.com":{"as":"AS13335 Cloudflare, Inc.","city":"Toronto","country":"Canada","countryCode":"CA","isp":"Cloudflare, Inc.","lat":43.6532,"lon":-79.3832,"org":"Cloudflare, Inc.","query":"172.66.43.33","region":"ON","regionName":"Ontario","timezone":"America/Toronto","zip":"M5A","continentCode":"NA","continentName":"North America","dns":{"name":"nostr-au.coinfundit.com","type":1,"TTL":300,"data":"172.66.43.33"}},"wss://xmr.usenostr.org":{"as":"AS197540 netcup GmbH","city":"Karlsruhe","country":"Germany","countryCode":"DE","isp":"netcup GmbH","lat":49.0291,"lon":8.35695,"org":"netcup GmbH","query":"185.194.143.52","region":"BW","regionName":"Baden-Wurttemberg","timezone":"Europe/Berlin","zip":"76185","continentCode":"EU","continentName":"Europe","dns":{"name":"xmr.usenostr.org","type":1,"TTL":1377,"data":"185.194.143.52"}},"wss://nostr.rocketstyle.com.au":{"as":"AS396982 Google LLC","city":"Sydney","country":"Australia","countryCode":"AU","isp":"Google LLC","lat":-33.8688,"lon":151.2092,"org":"Google Cloud (australia-southeast1)","query":"34.87.229.8","region":"NSW","regionName":"New South Wales","timezone":"Australia/Sydney","zip":"","continentCode":"OC","continentName":"Oceania","dns":{"name":"nostr.rocketstyle.com.au","type":1,"TTL":3600,"data":"34.87.229.8"}},"wss://nostr.azte.co":{"as":"AS63949 Akamai Connected Cloud","city":"Fremont","country":"United States","countryCode":"US","isp":"Akamai Technologies","lat":37.5625,"lon":-122.0004,"org":"Linode","query":"172.105.139.166","region":"CA","regionName":"California","timezone":"America/Los_Angeles","zip":"94536","continentCode":"NA","continentName":"North America","dns":{"name":"nostr.azte.co","type":1,"TTL":3600,"data":"172.105.139.166"}},"wss://nerostr.xmr.rocks":{"as":"AS16276 OVH SAS","city":"Gravelines","country":"France","countryCode":"FR","isp":"OVH","lat":50.9871,"lon":2.12554,"org":"OVH","query":"57.129.0.109","region":"HDF","regionName":"Hauts-de-France","timezone":"Europe/Paris","zip":"59820","continentCode":"EU","continentName":"Europe","dns":{"name":"nerostr.xmr.rocks","type":1,"TTL":3178,"data":"57.129.0.109"}},"wss://nostr.xmr.rocks":{"as":"AS24940 Hetzner Online GmbH","city":"Frankfurt Am Main","country":"Germany","countryCode":"DE","isp":"Hetzner Online AG","lat":50.094,"lon":8.4971,"org":"Hetzner Online AG","query":"91.107.228.17","region":"HE","regionName":"Hesse","timezone":"Europe/Berlin","zip":"65931","continentCode":"EU","continentName":"Europe","dns":{"name":"nostr.xmr.rocks","type":1,"TTL":3600,"data":"91.107.228.17"}},"wss://nostr.rikmeijer.nl":{"as":"AS50266 tmobile thuis","city":"Geldermalsen","country":"Netherlands","countryCode":"NL","isp":"T-mobile Netherlands","lat":51.8775,"lon":5.2971,"org":"","query":"95.98.126.19","region":"GE","regionName":"Gelderland","timezone":"Europe/Amsterdam","zip":"4191","continentCode":"EU","continentName":"Europe","dns":{"name":"home.rikmeijer.nl","type":1,"TTL":600,"data":"95.98.126.19"}},"wss://carnivore-diet-relay.denizenid.com":{"as":"AS7018 AT&T Services, Inc.","city":"Atlanta","country":"United States","countryCode":"US","isp":"AT&T Services, Inc.","lat":33.7838,"lon":-84.4455,"org":"AT&T Corp","query":"70.251.209.207","region":"GA","regionName":"Georgia","timezone":"America/New_York","zip":"30318","continentCode":"NA","continentName":"North America","dns":{"name":"nostream.denizenid.com","type":1,"TTL":178,"data":"70.251.209.207"}},"wss://sound-money-relay.denizenid.com":{"as":"AS7018 AT&T Services, Inc.","city":"Atlanta","country":"United States","countryCode":"US","isp":"AT&T Services, Inc.","lat":33.7838,"lon":-84.4455,"org":"AT&T Corp","query":"70.251.209.207","region":"GA","regionName":"Georgia","timezone":"America/New_York","zip":"30318","continentCode":"NA","continentName":"North America","dns":{"name":"nostream.denizenid.com","type":1,"TTL":178,"data":"70.251.209.207"}},"wss://relay.punkhub.me":{"as":"AS13335 Cloudflare, Inc.","city":"Toronto","country":"Canada","countryCode":"CA","isp":"Cloudflare, Inc.","lat":43.6532,"lon":-79.3832,"org":"Cloudflare, Inc.","query":"172.67.144.221","region":"ON","regionName":"Ontario","timezone":"America/Toronto","zip":"M5A","continentCode":"NA","continentName":"North America","dns":{"name":"relay.punkhub.me","type":1,"TTL":300,"data":"172.67.144.221"}},"wss://tmp-relay.cesc.trade":{"as":"AS13335 Cloudflare, Inc.","city":"Toronto","country":"Canada","countryCode":"CA","isp":"Cloudflare, Inc.","lat":43.6532,"lon":-79.3832,"org":"Cloudflare, Inc.","query":"104.21.68.250","region":"ON","regionName":"Ontario","timezone":"America/Toronto","zip":"M5A","continentCode":"NA","continentName":"North America","dns":{"name":"tmp-relay.cesc.trade","type":1,"TTL":300,"data":"104.21.68.250"}},"wss://student.chadpolytechnic.com":{"as":"AS16276 OVH SAS","city":"Reston","country":"United States","countryCode":"US","isp":"OVH SAS","lat":38.9555,"lon":-77.3643,"org":"OVH US LLC","query":"135.148.138.171","region":"VA","regionName":"Virginia","timezone":"America/New_York","zip":"20190","continentCode":"NA","continentName":"North America","dns":{"name":"student.chadpolytechnic.com","type":1,"TTL":600,"data":"135.148.138.171"}},"wss://spleenrider.herokuapp.com":{"as":"AS16509 Amazon.com, Inc.","city":"Dublin","country":"Ireland","countryCode":"IE","isp":"Amazon.com, Inc.","lat":53.3498,"lon":-6.26031,"org":"AWS EC2 (eu-west-1)","query":"54.228.42.199","region":"L","regionName":"Leinster","timezone":"Europe/Dublin","zip":"D02","continentCode":"EU","continentName":"Europe","dns":{"name":"ie01.ingress.herokuapp.com","type":1,"TTL":60,"data":"54.228.42.199"}},"wss://satstacker.cloud":{"as":"AS14586 Nuclearfallout Enterprises, Inc.","city":"Chicago","country":"United States","countryCode":"US","isp":"Nuclearfallout Enterprises, Inc.","lat":41.8486,"lon":-87.6288,"org":"Nuclearfallout Enterprises, Inc","query":"74.91.124.242","region":"IL","regionName":"Illinois","timezone":"America/Chicago","zip":"60616","continentCode":"NA","continentName":"North America","dns":{"name":"satstacker.cloud","type":1,"TTL":300,"data":"74.91.124.242"}},"wss://rsslay.nostr.net":{"as":"AS16509 Amazon.com, Inc.","city":"Frankfurt am Main","country":"Germany","countryCode":"DE","isp":"Amazon Technologies Inc.","lat":50.1109,"lon":8.68213,"org":"AWS EC2 (eu-central-1)","query":"3.125.196.145","region":"HE","regionName":"Hesse","timezone":"Europe/Berlin","zip":"60313","continentCode":"EU","continentName":"Europe","dns":{"name":"rsslay.nostr.net","type":1,"TTL":300,"data":"3.125.196.145"}},"wss://rsslay.nostr.moe":{"as":"AS40509 Fly.io, Inc.","city":"Chicago","country":"United States","countryCode":"US","isp":"Fly.io, Inc.","lat":41.8781,"lon":-87.6298,"org":"Fly.io, Inc.","query":"66.241.125.37","region":"IL","regionName":"Illinois","timezone":"America/Chicago","zip":"60680","continentCode":"NA","continentName":"North America","dns":{"name":"rsslay.fly.dev","type":1,"TTL":300,"data":"66.241.125.37"}},"wss://relay.valireum.net":{"as":"AS63949 Akamai Connected Cloud","city":"Mumbai","country":"India","countryCode":"IN","isp":"Akamai Technologies, Inc.","lat":19.0748,"lon":72.8856,"org":"Linode","query":"45.79.126.217","region":"MH","regionName":"Maharashtra","timezone":"Asia/Kolkata","zip":"400070","continentCode":"AS","continentName":"Asia","dns":{"name":"relay.valireum.net","type":1,"TTL":83010,"data":"45.79.126.217"}},"wss://relay.thes.ai":{"as":"AS14061 DigitalOcean, LLC","city":"North Bergen","country":"United States","countryCode":"US","isp":"DigitalOcean, LLC","lat":40.793,"lon":-74.0247,"org":"DigitalOcean, LLC","query":"157.230.203.61","region":"NJ","regionName":"New Jersey","timezone":"America/New_York","zip":"07047","continentCode":"NA","continentName":"North America","dns":{"name":"relay.thes.ai","type":1,"TTL":1799,"data":"157.230.203.61"}},"wss://relay.nyx.ma":{"as":"AS44477 STARK INDUSTRIES SOLUTIONS LTD","city":"Meppel","country":"Netherlands","countryCode":"NL","isp":"Stark Industries Solutions LTD","lat":52.6959,"lon":6.1847,"org":"Stark Industries Solutions LTD","query":"45.67.231.213","region":"DR","regionName":"Drenthe","timezone":"Europe/Amsterdam","zip":"7941","continentCode":"EU","continentName":"Europe","dns":{"name":"relay.nyx.ma","type":1,"TTL":7724,"data":"45.67.231.213"}},"wss://relay.nostrprotocol.net":{"as":"AS13335 Cloudflare, Inc.","city":"Amsterdam","country":"Netherlands","countryCode":"NL","isp":"Cloudflare, Inc.","lat":52.3716,"lon":4.8883,"org":"CloudFlare, Inc.","query":"188.114.96.12","region":"NH","regionName":"North Holland","timezone":"Europe/Amsterdam","zip":"1012","continentCode":"EU","continentName":"Europe","dns":{"name":"relay.nostrprotocol.net","type":1,"TTL":300,"data":"188.114.96.12"}},"wss://relay.nostrology.org":{"as":"AS40509 Fly.io, Inc.","city":"Chicago","country":"United States","countryCode":"US","isp":"Fly.io, Inc.","lat":41.8781,"lon":-87.6298,"org":"Fly.io, Inc.","query":"66.241.125.74","region":"IL","regionName":"Illinois","timezone":"America/Chicago","zip":"60680","continentCode":"NA","continentName":"North America","dns":{"name":"relay.nostrology.org","type":1,"TTL":40,"data":"66.241.125.74"}},"wss://relay.nostrmoto.xyz":{"as":"AS16509 Amazon.com, Inc.","city":"London","country":"United Kingdom","countryCode":"GB","isp":"Amazon Technologies Inc.","lat":51.5074,"lon":-0.127758,"org":"AWS EC2 (eu-west-2)","query":"13.40.183.66","region":"ENG","regionName":"England","timezone":"Europe/London","zip":"W1B","continentCode":"EU","continentName":"Europe","dns":{"name":"relay.nostrmoto.xyz","type":1,"TTL":600,"data":"13.40.183.66"}},"wss://relay.nostrich.land":{"as":"AS54600 PEG TECH INC","city":"Chiyoda","country":"Japan","countryCode":"JP","isp":"PEG TECH INC","lat":35.694,"lon":139.754,"org":"PEG TECH INC","query":"107.148.201.102","region":"13","regionName":"Tokyo","timezone":"Asia/Tokyo","zip":"100-0001","continentCode":"AS","continentName":"Asia","dns":{"name":"relay.nostrich.land","type":1,"TTL":1118,"data":"107.148.201.102"}},"wss://relay.nostrgraph.net":{"as":"AS13335 Cloudflare, Inc.","city":"Amsterdam","country":"Netherlands","countryCode":"NL","isp":"Cloudflare, Inc.","lat":52.3716,"lon":4.8883,"org":"CloudFlare, Inc.","query":"188.114.97.12","region":"NH","regionName":"North Holland","timezone":"Europe/Amsterdam","zip":"1012","continentCode":"EU","continentName":"Europe","dns":{"name":"relay.nostrgraph.net","type":1,"TTL":300,"data":"188.114.97.12"}},"wss://relay.nostrati.com":{"as":"AS14061 DigitalOcean, LLC","city":"London","country":"United Kingdom","countryCode":"GB","isp":"DigitalOcean, LLC","lat":51.5368,"lon":-0.6718,"org":"DigitalOcean, LLC","query":"104.248.169.36","region":"ENG","regionName":"England","timezone":"Europe/London","zip":"SL1","continentCode":"EU","continentName":"Europe","dns":{"name":"relay.nostrati.com","type":1,"TTL":1353,"data":"104.248.169.36"}},"wss://relay.nostr.wf":{"as":"AS14061 DigitalOcean, LLC","city":"Amsterdam","country":"Netherlands","countryCode":"NL","isp":"DigitalOcean, LLC","lat":52.352,"lon":4.9392,"org":"DigitalOcean, LLC","query":"167.99.19.191","region":"NH","regionName":"North Holland","timezone":"Europe/Amsterdam","zip":"1098","continentCode":"EU","continentName":"Europe","dns":{"name":"relay.nostr.wf","type":1,"TTL":300,"data":"167.99.19.191"}},"wss://relay.nostr.ro":{"as":"AS31898 Oracle Corporation","city":"Amsterdam","country":"Netherlands","countryCode":"NL","isp":"Oracle Corporation","lat":52.352,"lon":4.9392,"org":"Oracle Cloud Infrastructure (eu-amsterdam-1)","query":"193.123.56.65","region":"NH","regionName":"North Holland","timezone":"Europe/Amsterdam","zip":"1098","continentCode":"EU","continentName":"Europe","dns":{"name":"relay.nostr.ro","type":1,"TTL":300,"data":"193.123.56.65"}},"wss://relay.nostr.pro":{"as":"AS22612 Namecheap, Inc.","city":"Phoenix","country":"United States","countryCode":"US","isp":"Namecheap, Inc","lat":33.4475,"lon":-112.0866,"org":"Secured Servers LLC","query":"209.188.21.227","region":"AZ","regionName":"Arizona","timezone":"America/Phoenix","zip":"85036","continentCode":"NA","continentName":"North America","dns":{"name":"relay.nostr.pro","type":1,"TTL":1117,"data":"209.188.21.227"}},"wss://relay.nostr.nu":{"as":"AS51167 Contabo GmbH","city":"Düsseldorf","country":"Germany","countryCode":"DE","isp":"Contabo GmbH","lat":51.2277,"lon":6.77346,"org":"Contabo GmbH","query":"45.67.216.107","region":"NW","regionName":"North Rhine-Westphalia","timezone":"Europe/Berlin","zip":"40213","continentCode":"EU","continentName":"Europe","dns":{"name":"relay.nostr.nu","type":1,"TTL":300,"data":"45.67.216.107"}},"wss://relay.nostr.info":{"as":"AS14061 DigitalOcean, LLC","city":"Amsterdam","country":"Netherlands","countryCode":"NL","isp":"DigitalOcean, LLC","lat":52.3006,"lon":4.9479,"org":"Digital Ocean","query":"37.139.2.127","region":"NH","regionName":"North Holland","timezone":"Europe/Amsterdam","zip":"1105","continentCode":"EU","continentName":"Europe","dns":{"name":"relay.nostr.info","type":1,"TTL":130,"data":"37.139.2.127"}},"wss://relay.nostr.express":{"as":"AS14061 DigitalOcean, LLC","city":"Amsterdam","country":"Netherlands","countryCode":"NL","isp":"DigitalOcean, LLC","lat":52.352,"lon":4.9392,"org":"DigitalOcean, LLC","query":"128.199.33.220","region":"NH","regionName":"North Holland","timezone":"Europe/Amsterdam","zip":"1098","continentCode":"EU","continentName":"Europe","dns":{"name":"relay.nostr.express","type":1,"TTL":885,"data":"128.199.33.220"}},"wss://relay.nostr.ch":{"as":"AS60404 Liteserver","city":"Amsterdam","country":"Netherlands","countryCode":"NL","isp":"The Infrastructure Group B.V.","lat":52.3676,"lon":4.90414,"org":"Liteserver DRN VPS","query":"5.255.104.65","region":"NH","regionName":"North Holland","timezone":"Europe/Amsterdam","zip":"1012","continentCode":"EU","continentName":"Europe","dns":{"name":"nostr.ch","type":1,"TTL":2009,"data":"5.255.104.65"}},"wss://relay.nostr.bg":{"as":"AS51852 Private Layer INC","city":"Bern","country":"Switzerland","countryCode":"CH","isp":"Private Layer INC","lat":46.948,"lon":7.44745,"org":"Private Layer INC","query":"46.19.142.195","region":"BE","regionName":"Bern","timezone":"Europe/Zurich","zip":"3004","continentCode":"EU","continentName":"Europe","dns":{"name":"relay.nostr.bg","type":1,"TTL":13905,"data":"46.19.142.195"}},"wss://relay.nostr.au":{"as":"AS20473 The Constant Company, LLC","city":"Melbourne","country":"Australia","countryCode":"AU","isp":"The Constant Company, LLC","lat":-37.8372,"lon":144.9354,"org":"The Constant Company, LLC","query":"67.219.98.203","region":"VIC","regionName":"Victoria","timezone":"Australia/Melbourne","zip":"3207","continentCode":"OC","continentName":"Oceania","dns":{"name":"nostr.au","type":1,"TTL":300,"data":"67.219.98.203"}},"wss://relay.nostr-latam.link":{"as":"AS16509 Amazon.com, Inc.","city":"São Paulo","country":"Brazil","countryCode":"BR","isp":"Amazon Technologies Inc.","lat":-23.5505,"lon":-46.6333,"org":"AWS EC2 (sa-east-1)","query":"18.231.186.110","region":"SP","regionName":"São Paulo","timezone":"America/Sao_Paulo","zip":"01000-000","continentCode":"SA","continentName":"South America","dns":{"name":"relay.nostr-latam.link","type":1,"TTL":300,"data":"18.231.186.110"}},"wss://relay.nosphr.com":{"as":"AS63949 Akamai Connected Cloud","city":"Atlanta","country":"United States","countryCode":"US","isp":"Akamai Technologies, Inc.","lat":33.7485,"lon":-84.3871,"org":"Linode","query":"172.105.153.148","region":"GA","regionName":"Georgia","timezone":"America/New_York","zip":"30301","continentCode":"NA","continentName":"North America","dns":{"name":"relay.nosphr.com","type":1,"TTL":82028,"data":"172.105.153.148"}},"wss://relay.mynostr.id":{"as":"AS13335 Cloudflare, Inc.","city":"San Francisco","country":"United States","countryCode":"US","isp":"Cloudflare, Inc.","lat":37.7803,"lon":-122.39,"org":"Cloudflare, Inc.","query":"172.67.219.145","region":"CA","regionName":"California","timezone":"America/Los_Angeles","zip":"94107","continentCode":"NA","continentName":"North America","dns":{"name":"relay.mynostr.id","type":1,"TTL":300,"data":"172.67.219.145"}},"wss://relay.koreus.social":{"as":"AS16276 OVH SAS","city":"Roubaix","country":"France","countryCode":"FR","isp":"OVH SAS","lat":50.6917,"lon":3.20157,"org":"OVH ISP","query":"5.39.70.224","region":"HDF","regionName":"Hauts-de-France","timezone":"Europe/Paris","zip":"59100","continentCode":"EU","continentName":"Europe","dns":{"name":"koreus.com","type":1,"TTL":84790,"data":"5.39.70.224"}},"wss://relay.grunch.dev":{"as":"AS14061 DigitalOcean, LLC","city":"North Bergen","country":"United States","countryCode":"US","isp":"DigitalOcean, LLC","lat":40.793,"lon":-74.0247,"org":"Digital Ocean","query":"142.93.5.66","region":"NJ","regionName":"New Jersey","timezone":"America/New_York","zip":"07047","continentCode":"NA","continentName":"North America","dns":{"name":"relay.grunch.dev","type":1,"TTL":1235,"data":"142.93.5.66"}},"wss://relay.futohq.com":{"as":"AS14061 DigitalOcean, LLC","city":"Clifton","country":"United States","countryCode":"US","isp":"DigitalOcean, LLC","lat":40.8364,"lon":-74.1403,"org":"DigitalOcean, LLC","query":"143.198.29.31","region":"NJ","regionName":"New Jersey","timezone":"America/New_York","zip":"07014","continentCode":"NA","continentName":"North America","dns":{"name":"relay.futohq.com","type":1,"TTL":300,"data":"143.198.29.31"}},"wss://relay.dev.kronkltd.net":{"as":"AS7922 Comcast Cable Communications, LLC","city":"Westland","country":"United States","countryCode":"US","isp":"Comcast Cable Communications","lat":42.331,"lon":-83.3785,"org":"Comcast IP Services, L.L.C.","query":"73.161.115.10","region":"MI","regionName":"Michigan","timezone":"America/Detroit","zip":"48185","continentCode":"NA","continentName":"North America","dns":{"name":"relay.dev.kronkltd.net","type":1,"TTL":1514,"data":"73.161.115.10"}},"wss://relay.cynsar.foundation":{"as":"AS13335 Cloudflare, Inc.","city":"Toronto","country":"Canada","countryCode":"CA","isp":"Cloudflare, Inc.","lat":43.6532,"lon":-79.3832,"org":"Cloudflare, Inc.","query":"104.21.76.158","region":"ON","regionName":"Ontario","timezone":"America/Toronto","zip":"M5A","continentCode":"NA","continentName":"North America","dns":{"name":"relay.cynsar.foundation","type":1,"TTL":300,"data":"104.21.76.158"}},"wss://relay.boring.surf":{"as":"AS14061 DigitalOcean, LLC","city":"Santa Clara","country":"United States","countryCode":"US","isp":"DigitalOcean, LLC","lat":37.3931,"lon":-121.962,"org":"DigitalOcean, LLC","query":"143.198.76.51","region":"CA","regionName":"California","timezone":"America/Los_Angeles","zip":"95054","continentCode":"NA","continentName":"North America","dns":{"name":"relay.boring.surf","type":1,"TTL":60,"data":"143.198.76.51"}},"wss://relay.bleskop.com":{"as":"AS63949 Akamai Connected Cloud","city":"Toronto","country":"Canada","countryCode":"CA","isp":"Akamai Technologies, Inc.","lat":43.6547,"lon":-79.3623,"org":"Linode, LLC","query":"192.46.222.168","region":"ON","regionName":"Ontario","timezone":"America/Toronto","zip":"M5A","continentCode":"NA","continentName":"North America","dns":{"name":"relay.bleskop.com","type":1,"TTL":2898,"data":"192.46.222.168"}},"wss://relay.bitid.nz":{"as":"AS399629 BLNWX","city":"Los Angeles","country":"United States","countryCode":"US","isp":"BL Networks","lat":34.0544,"lon":-118.2441,"org":"BL Networks","query":"64.190.113.84","region":"CA","regionName":"California","timezone":"America/Los_Angeles","zip":"90060","continentCode":"NA","continentName":"North America","dns":{"name":"relay.bitid.nz","type":1,"TTL":911,"data":"64.190.113.84"}},"wss://relay.21spirits.io":{"as":"AS14061 DigitalOcean, LLC","city":"Frankfurt am Main","country":"Germany","countryCode":"DE","isp":"DigitalOcean, LLC","lat":50.1188,"lon":8.6843,"org":"DigitalOcean, LLC","query":"142.93.97.140","region":"HE","regionName":"Hesse","timezone":"Europe/Berlin","zip":"60313","continentCode":"EU","continentName":"Europe","dns":{"name":"relay.21spirits.io","type":1,"TTL":205,"data":"142.93.97.140"}},"wss://puravida.nostr.land":{"as":"AS13335 Cloudflare, Inc.","city":"Toronto","country":"Canada","countryCode":"CA","isp":"Cloudflare, Inc.","lat":43.6532,"lon":-79.3832,"org":"Cloudflare, Inc.","query":"104.21.15.41","region":"ON","regionName":"Ontario","timezone":"America/Toronto","zip":"M5A","continentCode":"NA","continentName":"North America","dns":{"name":"puravida.nostr.land","type":1,"TTL":300,"data":"104.21.15.41"}},"wss://private-nostr.v0l.io":{"as":"AS13335 Cloudflare, Inc.","city":"Toronto","country":"Canada","countryCode":"CA","isp":"Cloudflare, Inc.","lat":43.6532,"lon":-79.3832,"org":"Cloudflare, Inc.","query":"104.21.24.166","region":"ON","regionName":"Ontario","timezone":"America/Toronto","zip":"M5A","continentCode":"NA","continentName":"North America","dns":{"name":"private-nostr.v0l.io","type":1,"TTL":300,"data":"104.21.24.166"}},"wss://pow.nostrati.com":{"as":"AS14061 DigitalOcean, LLC","city":"London","country":"United Kingdom","countryCode":"GB","isp":"DigitalOcean","lat":51.5368,"lon":-0.6718,"org":"Digitalocean","query":"46.101.88.112","region":"ENG","regionName":"England","timezone":"Europe/London","zip":"SL1","continentCode":"EU","continentName":"Europe","dns":{"name":"pow.nostrati.com","type":1,"TTL":2004,"data":"46.101.88.112"}},"wss://paid.no.str.cr":{"as":"AS52423 Data Miners S.A. ( Racknation.cr )","city":"Heredia","country":"Costa Rica","countryCode":"CR","isp":"Data Miners S.A. ( Racknation.cr )","lat":9.9888,"lon":-84.1256,"org":"Data Miners S.A. ( Racknation.cr )","query":"143.202.162.130","region":"H","regionName":"Heredia Province","timezone":"America/Costa_Rica","zip":"40103","continentCode":"NA","continentName":"North America","dns":{"name":"paid.no.str.cr","type":1,"TTL":178,"data":"143.202.162.130"}},"wss://nostr.retroware.run.place":{"as":"AS14061 DigitalOcean, LLC","city":"Santa Clara","country":"United States","countryCode":"US","isp":"DigitalOcean, LLC","lat":37.3417,"lon":-121.9753,"org":"Digital Ocean","query":"165.227.17.198","region":"CA","regionName":"California","timezone":"America/Los_Angeles","zip":"95051","continentCode":"NA","continentName":"North America","dns":{"name":"retroware.run.place","type":1,"TTL":28800,"data":"165.227.17.198"}},"wss://nostrsatva.net":{"as":"AS31042 Serbia BroadBand-Srpske Kablovske mreze d.o.o.","city":"Novi Sad","country":"Serbia","countryCode":"RS","isp":"Serbia Broadband","lat":45.25,"lon":19.8362,"org":"","query":"24.135.254.168","region":"VO","regionName":"Vojvodina","timezone":"Europe/Belgrade","zip":"","continentCode":"EU","continentName":"Europe","dns":{"name":"nostrsatva.net","type":1,"TTL":60,"data":"24.135.254.168"}},"wss://nostrrelay.com":{"as":"AS24940 Hetzner Online GmbH","city":"Nuremberg","country":"Germany","countryCode":"DE","isp":"Hetzner Online GmbH","lat":49.4423,"lon":11.0191,"org":"Hetzner","query":"159.69.59.39","region":"BY","regionName":"Bavaria","timezone":"Europe/Berlin","zip":"90431","continentCode":"EU","continentName":"Europe","dns":{"name":"nostrrelay.com","type":1,"TTL":1265,"data":"159.69.59.39"}},"wss://nostring.deno.dev":{"as":"AS396982 Google LLC","city":"Kansas City","country":"United States","countryCode":"US","isp":"Google LLC","lat":39.0997,"lon":-94.5785,"org":"Google Cloud","query":"34.120.54.55","region":"MO","regionName":"Missouri","timezone":"America/Chicago","zip":"","continentCode":"NA","continentName":"North America","dns":{"name":"nostring.deno.dev","type":1,"TTL":60,"data":"34.120.54.55"}},"wss://nostrex.fly.dev":{"as":"AS40509 Fly.io, Inc.","city":"Chicago","country":"United States","countryCode":"US","isp":"Fly.io, Inc.","lat":41.8781,"lon":-87.6298,"org":"Fly.io, Inc.","query":"66.241.125.244","region":"IL","regionName":"Illinois","timezone":"America/Chicago","zip":"60680","continentCode":"NA","continentName":"North America","dns":{"name":"nostrex.fly.dev","type":1,"TTL":300,"data":"66.241.125.244"}},"wss://nostream.kinchie.snowinning.com":{"as":"AS16509 Amazon.com, Inc.","city":"Hong Kong","country":"Hong Kong","countryCode":"HK","isp":"Amazon.com","lat":22.3964,"lon":114.109,"org":"AWS EC2 (ap-east-1)","query":"16.163.42.113","region":"HCW","regionName":"Central and Western","timezone":"Asia/Hong_Kong","zip":"","continentCode":"AS","continentName":"Asia","dns":{"name":"nostream.kinchie.snowinning.com","type":1,"TTL":120,"data":"16.163.42.113"}},"wss://nostream.gromeul.eu":{"as":"AS16276 OVH SAS","city":"Gravelines","country":"France","countryCode":"FR","isp":"OVH SAS","lat":50.9959,"lon":2.11757,"org":"OVH","query":"57.128.42.242","region":"HDF","regionName":"Hauts-de-France","timezone":"Europe/Paris","zip":"59820","continentCode":"EU","continentName":"Europe","dns":{"name":"nostream.gromeul.eu","type":1,"TTL":3973,"data":"57.128.42.242"}},"wss://nostream.denizenid.com":{"as":"AS7018 AT&T Services, Inc.","city":"Atlanta","country":"United States","countryCode":"US","isp":"AT&T Services, Inc.","lat":33.7838,"lon":-84.4455,"org":"AT&T Corp","query":"70.251.209.207","region":"GA","regionName":"Georgia","timezone":"America/New_York","zip":"30318","continentCode":"NA","continentName":"North America","dns":{"name":"nostream.denizenid.com","type":1,"TTL":179,"data":"70.251.209.207"}},"wss://nostre.cc":{"as":"AS20473 The Constant Company, LLC","city":"Singapore","country":"Singapore","countryCode":"SG","isp":"The Constant Company, LLC","lat":1.32123,"lon":103.695,"org":"Choopa, LLC","query":"139.180.146.55","region":"05","regionName":"South West","timezone":"Asia/Singapore","zip":"627753","continentCode":"AS","continentName":"Asia","dns":{"name":"nostre.cc","type":1,"TTL":4569,"data":"139.180.146.55"}},"wss://nostrafrica.pcdkd.fyi":{"as":"AS16509 Amazon.com, Inc.","city":"Johannesburg","country":"South Africa","countryCode":"ZA","isp":"Amazon Technologies Inc.","lat":-26.2041,"lon":28.0473,"org":"AWS EC2 (af-south-1)","query":"13.245.185.44","region":"GT","regionName":"Gauteng","timezone":"Africa/Johannesburg","zip":"2041","continentCode":"AF","continentName":"Africa","dns":{"name":"nostrafrica.pcdkd.fyi","type":1,"TTL":195,"data":"13.245.185.44"}},"wss://nostr1.starbackr.me":{"as":"AS14618 Amazon.com, Inc.","city":"Ashburn","country":"United States","countryCode":"US","isp":"Amazon.com, Inc.","lat":39.0438,"lon":-77.4874,"org":"AWS EC2 (us-east-1)","query":"52.87.166.168","region":"VA","regionName":"Virginia","timezone":"America/New_York","zip":"20149","continentCode":"NA","continentName":"North America","dns":{"name":"nostr1.starbackr.me","type":1,"TTL":600,"data":"52.87.166.168"}},"wss://nostr01.vida.dev":{"as":"AS14061 DigitalOcean, LLC","city":"North Bergen","country":"United States","countryCode":"US","isp":"DigitalOcean, LLC","lat":40.793,"lon":-74.0247,"org":"DigitalOcean, LLC","query":"146.190.68.75","region":"NJ","regionName":"New Jersey","timezone":"America/New_York","zip":"07047","continentCode":"NA","continentName":"North America","dns":{"name":"nostr01.vida.dev","type":1,"TTL":300,"data":"146.190.68.75"}},"wss://nostr.zerofeerouting.com":{"as":"AS24940 Hetzner Online GmbH","city":"Gunzenhausen","country":"Germany","countryCode":"DE","isp":"Hetzner Online GmbH","lat":49.1156,"lon":10.7511,"org":"Hetzner","query":"23.88.33.13","region":"BY","regionName":"Bavaria","timezone":"Europe/Berlin","zip":"91710","continentCode":"EU","continentName":"Europe","dns":{"name":"nostr.zerofeerouting.com","type":1,"TTL":86400,"data":"23.88.33.13"}},"wss://nostr.zenon.wtf":{"as":"AS26554 US Signal Company, L.L.C.","city":"Oak Brook","country":"United States","countryCode":"US","isp":"US Signal Company","lat":41.8462,"lon":-87.9397,"org":"0x3639.com","query":"70.34.152.117","region":"IL","regionName":"Illinois","timezone":"America/Chicago","zip":"60523","continentCode":"NA","continentName":"North America","dns":{"name":"nostr.zenon.wtf","type":1,"TTL":300,"data":"70.34.152.117"}},"wss://nostr.zebedee.cloud":{"as":"AS14061 DigitalOcean, LLC","city":"Santa Clara","country":"United States","countryCode":"US","isp":"DigitalOcean, LLC","lat":37.3931,"lon":-121.962,"org":"DigitalOcean, LLC","query":"24.199.71.187","region":"CA","regionName":"California","timezone":"America/Los_Angeles","zip":"95054","continentCode":"NA","continentName":"North America","dns":{"name":"nostr.zebedee.cloud","type":1,"TTL":1799,"data":"24.199.71.187"}},"wss://nostr.zaprite.io":{"as":"AS174 Cogent Communications","city":"Toronto","country":"Canada","countryCode":"CA","isp":"Cogent Communications","lat":43.6532,"lon":-79.3832,"org":"Lunanode Hosting Inc.","query":"170.75.170.238","region":"ON","regionName":"Ontario","timezone":"America/Toronto","zip":"M5A","continentCode":"NA","continentName":"North America","dns":{"name":"nostr.zaprite.io","type":1,"TTL":1799,"data":"170.75.170.238"}},"wss://nostr.yael.at":{"as":"AS14061 DigitalOcean, LLC","city":"Frankfurt am Main","country":"Germany","countryCode":"DE","isp":"DigitalOcean, LLC","lat":50.1188,"lon":8.6843,"org":"DigitalOcean, LLC","query":"142.93.175.165","region":"HE","regionName":"Hesse","timezone":"Europe/Berlin","zip":"60313","continentCode":"EU","continentName":"Europe","dns":{"name":"nostr.yael.at","type":1,"TTL":300,"data":"142.93.175.165"}},"wss://nostr.xpersona.net":{"as":"AS51167 Contabo GmbH","city":"Nuremberg","country":"Germany","countryCode":"DE","isp":"Contabo GmbH","lat":49.405,"lon":11.1617,"org":"Contabo GmbH","query":"164.68.104.139","region":"BY","regionName":"Bavaria","timezone":"Europe/Berlin","zip":"90475","continentCode":"EU","continentName":"Europe","dns":{"name":"nostr.xpersona.net","type":1,"TTL":81813,"data":"164.68.104.139"}},"wss://nostr.whoop.ph":{"as":"AS9299 Philippine Long Distance Telephone Company","city":"Quezon City","country":"Philippines","countryCode":"PH","isp":"Philippine Long Distance Telephone Co.","lat":14.6258,"lon":121.039,"org":"Subdelegated to_1-16PFFYJ_KONSUM TECHNOLOGIES, INC.","query":"27.110.235.233","region":"00","regionName":"Metro Manila","timezone":"Asia/Manila","zip":"1103","continentCode":"AS","continentName":"Asia","dns":{"name":"nostr.whoop.ph","type":1,"TTL":6840,"data":"27.110.235.233"}},"wss://nostr.w3ird.tech":{"as":"AS14061 DigitalOcean, LLC","city":"Clifton","country":"United States","countryCode":"US","isp":"DigitalOcean, LLC","lat":40.8364,"lon":-74.1403,"org":"Digital Ocean","query":"165.227.251.31","region":"NJ","regionName":"New Jersey","timezone":"America/New_York","zip":"07014","continentCode":"NA","continentName":"North America","dns":{"name":"nostr.w3ird.tech","type":1,"TTL":887,"data":"165.227.251.31"}},"wss://nostr.utxo.lol":{"as":"AS24940 Hetzner Online GmbH","city":"Helsinki","country":"Finland","countryCode":"FI","isp":"Hetzner Online GmbH","lat":60.1719,"lon":24.9347,"org":"Hetzner","query":"135.181.253.250","region":"18","regionName":"Uusimaa","timezone":"Europe/Helsinki","zip":"00100","continentCode":"EU","continentName":"Europe","dns":{"name":"nostr.utxo.lol","type":1,"TTL":1429,"data":"135.181.253.250"}},"wss://nostr.up.railway.app":{"as":"AS396982 Google LLC","city":"The Dalles","country":"United States","countryCode":"US","isp":"Google LLC","lat":45.5945,"lon":-121.1786,"org":"Google Cloud (us-west1)","query":"104.196.232.237","region":"OR","regionName":"Oregon","timezone":"America/Los_Angeles","zip":"97058","continentCode":"NA","continentName":"North America","dns":{"name":"nostr.up.railway.app","type":1,"TTL":300,"data":"104.196.232.237"}},"wss://nostr.unknown.place":{"as":"AS51167 Contabo GmbH","city":"Dublin","country":"Ireland","countryCode":"IE","isp":"Contabo GmbH","lat":53.3498,"lon":-6.26031,"org":"Contabo GmbH","query":"38.242.216.240","region":"L","regionName":"Leinster","timezone":"Europe/Dublin","zip":"D02","continentCode":"EU","continentName":"Europe","dns":{"name":"nostr.unknown.place","type":1,"TTL":5890,"data":"38.242.216.240"}},"wss://dublin.saoirse.dev":{"as":"AS14061 DigitalOcean, LLC","city":"Clifton","country":"United States","countryCode":"US","isp":"DigitalOcean, LLC","lat":40.8364,"lon":-74.1403,"org":"Digital Ocean","query":"138.197.13.167","region":"NJ","regionName":"New Jersey","timezone":"America/New_York","zip":"07014","continentCode":"NA","continentName":"North America","dns":{"name":"dublin.saoirse.dev","type":1,"TTL":900,"data":"138.197.13.167"}},"wss://nostr.spleenrider.one":{"as":"AS63949 Akamai Connected Cloud","city":"Toronto","country":"Canada","countryCode":"CA","isp":"Akamai Technologies","lat":43.6547,"lon":-79.3623,"org":"Linode","query":"172.105.26.59","region":"ON","regionName":"Ontario","timezone":"America/Toronto","zip":"M5A","continentCode":"NA","continentName":"North America","dns":{"name":"nostr.spleenrider.one","type":1,"TTL":3302,"data":"172.105.26.59"}},"wss://nostr.sovbit.com":{"as":"AS14061 DigitalOcean, LLC","city":"North Bergen","country":"United States","countryCode":"US","isp":"DigitalOcean, LLC","lat":40.793,"lon":-74.0247,"org":"DigitalOcean, LLC","query":"204.48.30.236","region":"NJ","regionName":"New Jersey","timezone":"America/New_York","zip":"07047","continentCode":"NA","continentName":"North America","dns":{"name":"nostr.sovbit.com","type":1,"TTL":14055,"data":"204.48.30.236"}},"wss://nostr.soscary.net":{"as":"AS20473 The Constant Company, LLC","city":"Elk Grove Village","country":"United States","countryCode":"US","isp":"The Constant Company","lat":42.0048,"lon":-87.9954,"org":"Vultr Holdings, LLC","query":"207.148.14.72","region":"IL","regionName":"Illinois","timezone":"America/Chicago","zip":"60007","continentCode":"NA","continentName":"North America","dns":{"name":"nostr.soscary.net","type":1,"TTL":515,"data":"207.148.14.72"}},"wss://nostr.snblago.com":{"as":"AS14061 DigitalOcean, LLC","city":"Frankfurt am Main","country":"Germany","countryCode":"DE","isp":"DigitalOcean, LLC","lat":50.1188,"lon":8.6843,"org":"DigitalOcean, LLC","query":"134.122.93.65","region":"HE","regionName":"Hesse","timezone":"Europe/Berlin","zip":"60313","continentCode":"EU","continentName":"Europe","dns":{"name":"nostr.snblago.com","type":1,"TTL":85720,"data":"134.122.93.65"}},"wss://nostr.slothy.win":{"as":"AS13335 Cloudflare, Inc.","city":"Amsterdam","country":"Netherlands","countryCode":"NL","isp":"Cloudflare, Inc.","lat":52.3716,"lon":4.8883,"org":"CloudFlare, Inc.","query":"188.114.97.12","region":"NH","regionName":"North Holland","timezone":"Europe/Amsterdam","zip":"1012","continentCode":"EU","continentName":"Europe","dns":{"name":"nostr.slothy.win","type":1,"TTL":87,"data":"188.114.97.12"}},"wss://nostr.simatime.com":{"as":"AS14061 DigitalOcean, LLC","city":"North Bergen","country":"United States","countryCode":"US","isp":"DigitalOcean, LLC","lat":40.793,"lon":-74.0247,"org":"DigitalOcean, LLC","query":"143.198.118.179","region":"NJ","regionName":"New Jersey","timezone":"America/New_York","zip":"07047","continentCode":"NA","continentName":"North America","dns":{"name":"nostr.simatime.com","type":1,"TTL":968,"data":"143.198.118.179"}},"wss://nostr.shmueli.org":{"as":"AS36352 ColoCrossing","city":"Chicago","country":"United States","countryCode":"US","isp":"ColoCrossing","lat":41.8874,"lon":-87.6318,"org":"RackNerd LLC","query":"198.46.215.52","region":"IL","regionName":"Illinois","timezone":"America/Chicago","zip":"60602","continentCode":"NA","continentName":"North America","dns":{"name":"nostr.shmueli.org","type":1,"TTL":77016,"data":"198.46.215.52"}},"wss://nostr.semisol.dev":{"as":"AS24940 Hetzner Online GmbH","city":"Helsinki","country":"Finland","countryCode":"FI","isp":"Hetzner Online GmbH","lat":60.1719,"lon":24.9347,"org":"Hetzner","query":"65.21.149.149","region":"18","regionName":"Uusimaa","timezone":"Europe/Helsinki","zip":"00100","continentCode":"EU","continentName":"Europe","dns":{"name":"api.semisol.dev","type":1,"TTL":120,"data":"65.21.149.149"}},"wss://nostr.sebastix.dev":{"as":"AS20857 Signet B.V.","city":"Rotterdam","country":"Netherlands","countryCode":"NL","isp":"TransIP BV","lat":51.9244,"lon":4.47773,"org":"","query":"136.144.236.189","region":"ZH","regionName":"South Holland","timezone":"Europe/Amsterdam","zip":"3012","continentCode":"EU","continentName":"Europe","dns":{"name":"nostr.sebastix.dev","type":1,"TTL":600,"data":"136.144.236.189"}},"wss://nostr.satoshi.fun":{"as":"AS29580 A1 Bulgaria EAD","city":"Sofia","country":"Bulgaria","countryCode":"BG","isp":"A1 Bulgaria EAD","lat":42.6951,"lon":23.325,"org":"A1 SFN BNG Resid","query":"37.63.92.87","region":"22","regionName":"Sofia-Capital","timezone":"Europe/Sofia","zip":"1000","continentCode":"EU","continentName":"Europe","dns":{"name":"nostr.satoshi.fun","type":1,"TTL":1799,"data":"37.63.92.87"}},"wss://nostr.sandwich.farm":{"as":"AS14061 DigitalOcean, LLC","city":"Frankfurt am Main","country":"Germany","countryCode":"DE","isp":"DigitalOcean, LLC","lat":50.1188,"lon":8.6843,"org":"Digital Ocean","query":"46.101.217.80","region":"HE","regionName":"Hesse","timezone":"Europe/Berlin","zip":"60313","continentCode":"EU","continentName":"Europe","dns":{"name":"nostr.sandwich.farm","type":1,"TTL":1772,"data":"46.101.217.80"}},"wss://nostr.rocks":{"as":"AS24940 Hetzner Online GmbH","city":"Falkenstein","country":"Germany","countryCode":"DE","isp":"Hetzner Online GmbH","lat":50.475,"lon":12.365,"org":"Hetzner","query":"162.55.33.235","region":"SN","regionName":"Saxony","timezone":"Europe/Berlin","zip":"08223","continentCode":"EU","continentName":"Europe","dns":{"name":"nostr.rocks","type":1,"TTL":1799,"data":"162.55.33.235"}},"wss://nostr.robotechy.com":{"as":"AS8075 Microsoft Corporation","city":"Amsterdam","country":"Netherlands","countryCode":"NL","isp":"Microsoft Corporation","lat":52.3667,"lon":4.9,"org":"Microsoft Azure Cloud (westeurope)","query":"20.56.0.144","region":"NH","regionName":"North Holland","timezone":"Europe/Amsterdam","zip":"1047","continentCode":"EU","continentName":"Europe","dns":{"name":"nostr.robotechy.com","type":1,"TTL":300,"data":"20.56.0.144"}},"wss://nostr.rewardsbunny.com":{"as":"AS14061 DigitalOcean, LLC","city":"Singapore","country":"Singapore","countryCode":"SG","isp":"DigitalOcean, LLC","lat":1.32123,"lon":103.695,"org":"DigitalOcean, LLC","query":"146.190.195.96","region":"05","regionName":"South West","timezone":"Asia/Singapore","zip":"627753","continentCode":"AS","continentName":"Asia","dns":{"name":"nostr.rewardsbunny.com","type":1,"TTL":300,"data":"146.190.195.96"}},"wss://nostr.rdfriedl.com":{"as":"AS16591 Google Fiber Inc.","city":"Kansas City","country":"United States","countryCode":"US","isp":"Google Fiber Inc.","lat":39.0537,"lon":-94.5906,"org":"Google Fiber Inc","query":"136.34.82.93","region":"MO","regionName":"Missouri","timezone":"America/Chicago","zip":"64111","continentCode":"NA","continentName":"North America","dns":{"name":"nostr.rdfriedl.com","type":1,"TTL":0,"data":"136.34.82.93"}},"wss://nostr.randomdevelopment.biz":{"as":"AS399045 DEDIOUTLET-NETWORKS","city":"Whittier","country":"United States","countryCode":"US","isp":"Net Data Centers","lat":33.9689,"lon":-118.05,"org":"Metasolutions","query":"64.93.80.148","region":"CA","regionName":"California","timezone":"America/Los_Angeles","zip":"90602","continentCode":"NA","continentName":"North America","dns":{"name":"nostr.randomdevelopment.biz","type":1,"TTL":300,"data":"64.93.80.148"}},"wss://nostr.portemonero.com":{"as":"AS197540 netcup GmbH","city":"Karlsruhe","country":"Germany","countryCode":"DE","isp":"netcup GmbH","lat":49.0291,"lon":8.35705,"org":"NETCUP-GMBH","query":"37.120.165.105","region":"BW","regionName":"Baden-Wurttemberg","timezone":"Europe/Berlin","zip":"76185","continentCode":"EU","continentName":"Europe","dns":{"name":"nostr.portemonero.com","type":1,"TTL":86400,"data":"37.120.165.105"}},"wss://nostr.pobblelabs.org":{"as":"AS213230 Hetzner Online GmbH","city":"Ashburn","country":"United States","countryCode":"US","isp":"Hetzner Online GmbH","lat":39.0438,"lon":-77.4874,"org":"HETZNER-DC","query":"5.161.179.3","region":"VA","regionName":"Virginia","timezone":"America/New_York","zip":"20149","continentCode":"NA","continentName":"North America","dns":{"name":"nostr.pobblelabs.org","type":1,"TTL":300,"data":"5.161.179.3"}},"wss://nostr.plebchain.org":{"as":"AS14061 DigitalOcean, LLC","city":"Toronto","country":"Canada","countryCode":"CA","isp":"DigitalOcean, LLC","lat":43.6547,"lon":-79.3623,"org":"DigitalOcean, LLC","query":"142.93.144.218","region":"ON","regionName":"Ontario","timezone":"America/Toronto","zip":"M5A","continentCode":"NA","continentName":"North America","dns":{"name":"nostr.plebchain.org","type":1,"TTL":600,"data":"142.93.144.218"}},"wss://nostr.oxtr.dev":{"as":"AS24940 Hetzner Online GmbH","city":"Gunzenhausen","country":"Germany","countryCode":"DE","isp":"Hetzner Online GmbH","lat":49.1156,"lon":10.7511,"org":"Hetzner","query":"23.88.99.81","region":"BY","regionName":"Bavaria","timezone":"Europe/Berlin","zip":"91710","continentCode":"EU","continentName":"Europe","dns":{"name":"nostr.oxtr.dev","type":1,"TTL":5066,"data":"23.88.99.81"}},"wss://nostr.ownscale.org":{"as":"AS6730 Sunrise GmbH","city":"Lausanne","country":"Switzerland","countryCode":"CH","isp":"Sunrise GmbH","lat":46.5294,"lon":6.6123,"org":"Sunrise Communications AG","query":"84.226.1.195","region":"VD","regionName":"Vaud","timezone":"Europe/Zurich","zip":"1001","continentCode":"EU","continentName":"Europe","dns":{"name":"ownscale.org","type":1,"TTL":300,"data":"84.226.1.195"}},"wss://nostr.orba.ca":{"as":"AS328364 Host Africa (Pty) Ltd","city":"Johannesburg","country":"South Africa","countryCode":"ZA","isp":"Hostafrica","lat":-26.3811,"lon":27.8376,"org":"","query":"102.130.122.185","region":"GP","regionName":"Gauteng","timezone":"Africa/Johannesburg","zip":"2041","continentCode":"AF","continentName":"Africa","dns":{"name":"nostr.orba.ca","type":1,"TTL":600,"data":"102.130.122.185"}},"wss://nostr.openchain.fr":{"as":"AS31898 Oracle Corporation","city":"Paris","country":"France","countryCode":"FR","isp":"Oracle Corporation","lat":48.8323,"lon":2.4075,"org":"Oracle Corporation","query":"141.145.193.235","region":"IDF","regionName":"Île-de-France","timezone":"Europe/Paris","zip":"75001","continentCode":"EU","continentName":"Europe","dns":{"name":"nostr.openchain.fr","type":1,"TTL":300,"data":"141.145.193.235"}},"wss://nostr.onsats.org":{"as":"AS12876 ONLINE S.A.S.","city":"Paris","country":"France","countryCode":"FR","isp":"SCALEWAY","lat":48.8323,"lon":2.4075,"org":"ONLINE","query":"51.158.169.7","region":"IDF","regionName":"Île-de-France","timezone":"Europe/Paris","zip":"75001","continentCode":"EU","continentName":"Europe","dns":{"name":"nostr.onsats.org","type":1,"TTL":679,"data":"51.158.169.7"}},"wss://nostr.ono.re":{"as":"AS29222 Infomaniak","city":"Geneva","country":"Switzerland","countryCode":"CH","isp":"Infomaniak Network Management","lat":46.1953,"lon":6.1385,"org":"Infomaniak Network SA","query":"195.15.243.36","region":"GE","regionName":"Geneva","timezone":"Europe/Zurich","zip":"1200","continentCode":"EU","continentName":"Europe","dns":{"name":"alephium.ono.re","type":1,"TTL":60,"data":"195.15.243.36"}},"wss://nostr.nordlysln.net":{"as":"AS9009 M247 Europe SRL","city":"Stockholm","country":"Sweden","countryCode":"SE","isp":"M247 Europe SRL","lat":59.4076,"lon":17.8951,"org":"M247 LTD","query":"37.120.153.77","region":"AB","regionName":"Stockholm County","timezone":"Europe/Stockholm","zip":"121 88","continentCode":"EU","continentName":"Europe","dns":{"name":"nostr.nordlysln.net","type":1,"TTL":4945,"data":"37.120.153.77"}},"wss://nostr.noones.com":{"as":"AS14061 DigitalOcean, LLC","city":"Frankfurt am Main","country":"Germany","countryCode":"DE","isp":"DigitalOcean, LLC","lat":50.1188,"lon":8.6843,"org":"DigitalOcean, LLC","query":"64.225.99.24","region":"HE","regionName":"Hesse","timezone":"Europe/Berlin","zip":"60313","continentCode":"EU","continentName":"Europe","dns":{"name":"nostr.noones.com","type":1,"TTL":300,"data":"64.225.99.24"}},"wss://nostr.ncsa.illinois.edu":{"as":"AS1224 National Center for Supercomputing Applications","city":"Urbana","country":"United States","countryCode":"US","isp":"National Center Supercomputing Applications","lat":40.1149,"lon":-88.2249,"org":"National Center Supercomputing Applications","query":"141.142.219.164","region":"IL","regionName":"Illinois","timezone":"America/Chicago","zip":"61801","continentCode":"NA","continentName":"North America","dns":{"name":"nostr.ncsa.illinois.edu","type":1,"TTL":84207,"data":"141.142.219.164"}},"wss://nostr.namek.link":{"as":"AS13335 Cloudflare, Inc.","city":"Toronto","country":"Canada","countryCode":"CA","isp":"Cloudflare, Inc.","lat":43.6532,"lon":-79.3832,"org":"Cloudflare, Inc.","query":"172.67.176.77","region":"ON","regionName":"Ontario","timezone":"America/Toronto","zip":"M5A","continentCode":"NA","continentName":"North America","dns":{"name":"nostr.namek.link","type":1,"TTL":300,"data":"172.67.176.77"}},"wss://nostr.milou.lol":{"as":"AS13335 Cloudflare, Inc.","city":"Toronto","country":"Canada","countryCode":"CA","isp":"Cloudflare, Inc.","lat":43.6532,"lon":-79.3832,"org":"Cloudflare, Inc.","query":"104.21.84.40","region":"ON","regionName":"Ontario","timezone":"America/Toronto","zip":"M5A","continentCode":"NA","continentName":"North America","dns":{"name":"nostr.milou.lol","type":1,"TTL":300,"data":"104.21.84.40"}},"wss://nostr.mikedilger.com":{"as":"AS45179 SiteHost New Zealand","city":"Auckland","country":"New Zealand","countryCode":"NZ","isp":"SiteTech Solutions Limited","lat":-36.8648,"lon":174.7031,"org":"SiteTech Solutions Limited","query":"120.138.21.100","region":"AUK","regionName":"Auckland","timezone":"Pacific/Auckland","zip":"1022","continentCode":"OC","continentName":"Oceania","dns":{"name":"nostr.mikedilger.com","type":1,"TTL":3600,"data":"120.138.21.100"}},"wss://nostr.middling.mydns.jp":{"as":"AS31898 Oracle Corporation","city":"Tokyo","country":"Japan","countryCode":"JP","isp":"Oracle Corporation","lat":35.798,"lon":140.1803,"org":"Oracle Cloud Infrastructure (ap-tokyo-1)","query":"140.238.40.150","region":"13","regionName":"Tokyo","timezone":"Asia/Tokyo","zip":"270-1351","continentCode":"AS","continentName":"Asia","dns":{"name":"nostr.middling.mydns.jp","type":1,"TTL":300,"data":"140.238.40.150"}},"wss://nostr.mado.io":{"as":"AS138915 Kaopu Cloud HK Limited","city":"Johannesburg","country":"South Africa","countryCode":"ZA","isp":"Kaopu Cloud HK Limited","lat":-26.3811,"lon":27.8376,"org":"LightNode-ZA","query":"38.54.63.226","region":"GP","regionName":"Gauteng","timezone":"Africa/Johannesburg","zip":"2001","continentCode":"AF","continentName":"Africa","dns":{"name":"nostr.mado.io","type":1,"TTL":300,"data":"38.54.63.226"}},"wss://nostr.lukeacl.com":{"as":"AS13335 Cloudflare, Inc.","city":"Toronto","country":"Canada","countryCode":"CA","isp":"Cloudflare, Inc.","lat":43.6532,"lon":-79.3832,"org":"Cloudflare, Inc.","query":"172.67.155.28","region":"ON","regionName":"Ontario","timezone":"America/Toronto","zip":"M5A","continentCode":"NA","continentName":"North America","dns":{"name":"nostr.lukeacl.com","type":1,"TTL":300,"data":"172.67.155.28"}},"wss://nostr.lu.ke":{"as":"AS16276 OVH SAS","city":"London","country":"United Kingdom","countryCode":"GB","isp":"OVH SAS","lat":51.5164,"lon":-0.093,"org":"OVH Ltd","query":"198.244.201.86","region":"ENG","regionName":"England","timezone":"Europe/London","zip":"EC2V","continentCode":"EU","continentName":"Europe","dns":{"name":"nostr.lu.ke","type":1,"TTL":60,"data":"198.244.201.86"}},"wss://nostr.lordkno.ws":{"as":"AS396982 Google LLC","city":"The Dalles","country":"United States","countryCode":"US","isp":"Google LLC","lat":45.5945,"lon":-121.1786,"org":"Google Cloud (us-west1)","query":"104.196.232.237","region":"OR","regionName":"Oregon","timezone":"America/Los_Angeles","zip":"97058","continentCode":"NA","continentName":"North America","dns":{"name":"nostream-production-2ea4.up.railway.app","type":1,"TTL":300,"data":"104.196.232.237"}},"wss://nostr.localhost.re":{"as":"AS12876 ONLINE S.A.S.","city":"Paris","country":"France","countryCode":"FR","isp":"SCALEWAY","lat":48.8323,"lon":2.4075,"org":"ONLINE","query":"51.159.31.229","region":"IDF","regionName":"Île-de-France","timezone":"Europe/Paris","zip":"75001","continentCode":"EU","continentName":"Europe","dns":{"name":"nostr.localhost.re","type":1,"TTL":2919,"data":"51.159.31.229"}},"wss://nostr.leximaster.com":{"as":"AS51167 Contabo GmbH","city":"Düsseldorf","country":"Germany","countryCode":"DE","isp":"Contabo GmbH","lat":51.2184,"lon":6.7734,"org":"Contabo GmbH","query":"185.208.206.119","region":"NW","regionName":"North Rhine-Westphalia","timezone":"Europe/Berlin","zip":"40213","continentCode":"EU","continentName":"Europe","dns":{"name":"nostr.leximaster.com","type":1,"TTL":300,"data":"185.208.206.119"}},"wss://nostr.lapalomilla.mx":{"as":"AS13335 Cloudflare, Inc.","city":"Toronto","country":"Canada","countryCode":"CA","isp":"Cloudflare, Inc.","lat":43.6532,"lon":-79.3832,"org":"Cloudflare, Inc.","query":"172.67.148.55","region":"ON","regionName":"Ontario","timezone":"America/Toronto","zip":"M5A","continentCode":"NA","continentName":"North America","dns":{"name":"nostr.lapalomilla.mx","type":1,"TTL":300,"data":"172.67.148.55"}},"wss://nostr.jimc.me":{"as":"AS11427 Charter Communications Inc","city":"Austin","country":"United States","countryCode":"US","isp":"Charter Communications","lat":30.2627,"lon":-97.7467,"org":"Spectrum","query":"70.112.153.229","region":"TX","regionName":"Texas","timezone":"America/Chicago","zip":"78713","continentCode":"NA","continentName":"North America","dns":{"name":"nostr.jimc.me","type":1,"TTL":176,"data":"70.112.153.229"}},"wss://nostr.hyperlingo.com":{"as":"AS14061 DigitalOcean, LLC","city":"North Bergen","country":"United States","countryCode":"US","isp":"DigitalOcean, LLC","lat":40.793,"lon":-74.0247,"org":"DigitalOcean, LLC","query":"24.199.64.212","region":"NJ","regionName":"New Jersey","timezone":"America/New_York","zip":"07047","continentCode":"NA","continentName":"North America","dns":{"name":"nostr.hyperlingo.com","type":1,"TTL":300,"data":"24.199.64.212"}},"wss://nostr.hugo.md":{"as":"AS13335 Cloudflare, Inc.","city":"Toronto","country":"Canada","countryCode":"CA","isp":"Cloudflare, Inc.","lat":43.6532,"lon":-79.3832,"org":"Cloudflare, Inc.","query":"172.67.137.110","region":"ON","regionName":"Ontario","timezone":"America/Toronto","zip":"M5A","continentCode":"NA","continentName":"North America","dns":{"name":"nostr.hugo.md","type":1,"TTL":300,"data":"172.67.137.110"}},"wss://nostr.howtobitcoin.shop":{"as":"AS14061 DigitalOcean, LLC","city":"Santa Clara","country":"United States","countryCode":"US","isp":"DigitalOcean, LLC","lat":37.3931,"lon":-121.962,"org":"DigitalOcean, LLC","query":"164.90.245.177","region":"CA","regionName":"California","timezone":"America/Los_Angeles","zip":"95054","continentCode":"NA","continentName":"North America","dns":{"name":"nostr.howtobitcoin.shop","type":1,"TTL":1167,"data":"164.90.245.177"}},"wss://nostr.h4x0r.host":{"as":"AS133159 Mammoth Media Pty Ltd","city":"Sydney","country":"Australia","countryCode":"AU","isp":"Mammoth Media Pty Ltd","lat":-33.808,"lon":151.1415,"org":"Mammoth Media Pty Ltd","query":"103.1.186.244","region":"NSW","regionName":"New South Wales","timezone":"Australia/Sydney","zip":"2113","continentCode":"OC","continentName":"Oceania","dns":{"name":"nostr.h4x0r.host","type":1,"TTL":300,"data":"103.1.186.244"}},"wss://nostr.gruntwerk.org":{"as":"AS13335 Cloudflare, Inc.","city":"Amsterdam","country":"Netherlands","countryCode":"NL","isp":"Cloudflare, Inc.","lat":52.3716,"lon":4.8883,"org":"CloudFlare, Inc.","query":"188.114.97.12","region":"NH","regionName":"North Holland","timezone":"Europe/Amsterdam","zip":"1012","continentCode":"EU","continentName":"Europe","dns":{"name":"nostr.gruntwerk.org","type":1,"TTL":300,"data":"188.114.97.12"}},"wss://nostr.globals.fans":{"as":"AS13335 Cloudflare, Inc.","city":"Toronto","country":"Canada","countryCode":"CA","isp":"Cloudflare, Inc.","lat":43.6532,"lon":-79.3832,"org":"Cloudflare, Inc.","query":"104.21.46.85","region":"ON","regionName":"Ontario","timezone":"America/Toronto","zip":"M5A","continentCode":"NA","continentName":"North America","dns":{"name":"nostr.globals.fans","type":1,"TTL":300,"data":"104.21.46.85"}},"wss://nostr.fractalized.ovh":{"as":"AS16276 OVH SAS","city":"Strasbourg","country":"France","countryCode":"FR","isp":"OVH SAS","lat":48.5734,"lon":7.75211,"org":"OVH","query":"51.255.50.159","region":"GES","regionName":"Grand Est","timezone":"Europe/Paris","zip":"67000","continentCode":"EU","continentName":"Europe","dns":{"name":"nostr.fractalized.ovh","type":1,"TTL":175,"data":"51.255.50.159"}},"wss://nostr.formigator.eu":{"as":"AS14618 Amazon.com, Inc.","city":"Ashburn","country":"United States","countryCode":"US","isp":"Amazon.com, Inc.","lat":39.0438,"lon":-77.4874,"org":"AWS EC2 (us-east-1)","query":"34.195.176.109","region":"VA","regionName":"Virginia","timezone":"America/New_York","zip":"20149","continentCode":"NA","continentName":"North America","dns":{"name":"nostr.formigator.eu","type":1,"TTL":60,"data":"34.195.176.109"}},"wss://nostr.fmt.wiz.biz":{"as":"AS54415 WIZ K.K.","city":"Fremont","country":"United States","countryCode":"US","isp":"WIZ K.K.","lat":37.5172,"lon":-121.9191,"org":"WIZ K K","query":"103.99.170.125","region":"CA","regionName":"California","timezone":"America/Los_Angeles","zip":"94539","continentCode":"NA","continentName":"North America","dns":{"name":"nostr.fmt.wiz.biz","type":1,"TTL":2756,"data":"103.99.170.125"}},"wss://nostr.fly.dev":{"as":"AS40509 Fly.io, Inc.","city":"Chicago","country":"United States","countryCode":"US","isp":"Fly.io, Inc.","lat":41.8781,"lon":-87.6298,"org":"Fly.io, Inc.","query":"66.241.125.44","region":"IL","regionName":"Illinois","timezone":"America/Chicago","zip":"60680","continentCode":"NA","continentName":"North America","dns":{"name":"nostr.fly.dev","type":1,"TTL":300,"data":"66.241.125.44"}},"wss://nostr.f44.dev":{"as":"AS14061 DigitalOcean, LLC","city":"Amsterdam","country":"Netherlands","countryCode":"NL","isp":"DigitalOcean, LLC","lat":52.352,"lon":4.9392,"org":"DigitalOcean, LLC","query":"159.223.240.123","region":"NH","regionName":"North Holland","timezone":"Europe/Amsterdam","zip":"1098","continentCode":"EU","continentName":"Europe","dns":{"name":"nostr.f44.dev","type":1,"TTL":2341,"data":"159.223.240.123"}},"wss://nostr.digitalreformation.info":{"as":"AS14061 DigitalOcean, LLC","city":"Santa Clara","country":"United States","countryCode":"US","isp":"DigitalOcean, LLC","lat":37.3931,"lon":-121.962,"org":"DigitalOcean, LLC","query":"164.92.68.236","region":"CA","regionName":"California","timezone":"America/Los_Angeles","zip":"95054","continentCode":"NA","continentName":"North America","dns":{"name":"nostr.digitalreformation.info","type":1,"TTL":86400,"data":"164.92.68.236"}},"wss://nostr.developer.li":{"as":"AS16276 OVH SAS","city":"Gravelines","country":"France","countryCode":"FR","isp":"OVH SAS","lat":50.9959,"lon":2.11757,"org":"OVH","query":"162.19.67.140","region":"HDF","regionName":"Hauts-de-France","timezone":"Europe/Paris","zip":"59820","continentCode":"EU","continentName":"Europe","dns":{"name":"nostr.developer.li","type":1,"TTL":3600,"data":"162.19.67.140"}},"wss://nostr.delo.software":{"as":"AS63473 HostHatch, LLC","city":"Amsterdam","country":"Netherlands","countryCode":"NL","isp":"HostHatch","lat":52.3006,"lon":4.9479,"org":"HostHatch LLC","query":"153.92.127.199","region":"NH","regionName":"North Holland","timezone":"Europe/Amsterdam","zip":"1105","continentCode":"EU","continentName":"Europe","dns":{"name":"nostr.delo.software","type":1,"TTL":3600,"data":"153.92.127.199"}},"wss://nostr.ddns.net":{"as":"AS11426 Charter Communications Inc","city":"Wake Forest","country":"United States","countryCode":"US","isp":"Charter Communications","lat":35.9825,"lon":-78.5376,"org":"Spectrum","query":"174.109.144.26","region":"NC","regionName":"North Carolina","timezone":"America/New_York","zip":"27587","continentCode":"NA","continentName":"North America","dns":{"name":"nostr.ddns.net","type":1,"TTL":60,"data":"174.109.144.26"}},"wss://nostr.datamagik.com":{"as":"AS8560 IONOS SE","city":"Norwalk","country":"United States","countryCode":"US","isp":"IONOS SE","lat":33.9098,"lon":-118.0714,"org":"IONOS Inc","query":"74.208.228.104","region":"CA","regionName":"California","timezone":"America/Los_Angeles","zip":"90650","continentCode":"NA","continentName":"North America","dns":{"name":"nostr.datamagik.com","type":1,"TTL":600,"data":"74.208.228.104"}},"wss://nostr.corebreach.com":{"as":"AS209 CenturyLink Communications, LLC","city":"Portland","country":"United States","countryCode":"US","isp":"CenturyLink","lat":45.5777,"lon":-122.6795,"org":"CenturyLink, Inc","query":"97.115.133.219","region":"OR","regionName":"Oregon","timezone":"America/Los_Angeles","zip":"97217","continentCode":"NA","continentName":"North America","dns":{"name":"j3.corebreach.com","type":1,"TTL":300,"data":"97.115.133.219"}},"wss://nostr.community.networks.deavmi.assigned.network":{"as":"AS202265 InterWebs Ltd.","city":"Kathu","country":"South Africa","countryCode":"ZA","isp":"InterWebs Ltd.","lat":-27.7818,"lon":22.9849,"org":"deavmi","query":"2a04:5b81:2010:9100:13c6:e130:419f:eaa2","region":"NC","regionName":"Northern Cape","timezone":"Africa/Johannesburg","zip":"","continentCode":"AF","continentName":"Africa","dns":{"name":"nostr.community.networks.deavmi.assigned.network","type":5,"TTL":85489,"data":"11.internals.deavmi.assigned.network."}},"wss://nostr.coinsamba.com.br":{"as":"AS27715 Locaweb Serviços de Internet S/A","city":"São Paulo","country":"Brazil","countryCode":"BR","isp":"Locaweb Serviços de Internet S/A","lat":-23.5558,"lon":-46.6396,"org":"Locaweb Serviços de Internet S/A","query":"177.153.64.148","region":"SP","regionName":"Sao Paulo","timezone":"America/Sao_Paulo","zip":"01000-000","continentCode":"SA","continentName":"South America","dns":{"name":"nostr.coinsamba.com.br","type":1,"TTL":600,"data":"177.153.64.148"}},"wss://nostr.coinos.io":{"as":"AS13335 Cloudflare, Inc.","city":"Amsterdam","country":"Netherlands","countryCode":"NL","isp":"Cloudflare, Inc.","lat":52.3716,"lon":4.8883,"org":"CloudFlare, Inc.","query":"188.114.97.12","region":"NH","regionName":"North Holland","timezone":"Europe/Amsterdam","zip":"1012","continentCode":"EU","continentName":"Europe","dns":{"name":"nostr.coinos.io","type":1,"TTL":300,"data":"188.114.97.12"}},"wss://nostr.cizmar.net":{"as":"AS197071 active 1 GmbH","city":"Lutzerath","country":"Germany","countryCode":"DE","isp":"IP via active-servers.com","lat":50.1281,"lon":7.00794,"org":"","query":"109.230.195.105","region":"RP","regionName":"Rheinland-Pfalz","timezone":"Europe/Berlin","zip":"56826","continentCode":"EU","continentName":"Europe","dns":{"name":"liska.cizmar.net","type":1,"TTL":426942,"data":"109.230.195.105"}},"wss://nostr.bitcoinplebs.de":{"as":"AS6724 Strato AG","city":"Berlin","country":"Germany","countryCode":"DE","isp":"Strato AG","lat":52.5234,"lon":13.3224,"org":"Strato AG","query":"81.169.245.71","region":"BE","regionName":"Land Berlin","timezone":"Europe/Berlin","zip":"10587","continentCode":"EU","continentName":"Europe","dns":{"name":"nostr.bitcoinplebs.de","type":1,"TTL":4577,"data":"81.169.245.71"}},"wss://nostr.bitcoin-basel.ch":{"as":"AS396982 Google LLC","city":"The Dalles","country":"United States","countryCode":"US","isp":"Google LLC","lat":45.5945,"lon":-121.1786,"org":"Google Cloud (us-west1)","query":"104.196.232.237","region":"OR","regionName":"Oregon","timezone":"America/Los_Angeles","zip":"97058","continentCode":"NA","continentName":"North America","dns":{"name":"nostream-production-bd12.up.railway.app","type":1,"TTL":300,"data":"104.196.232.237"}},"wss://nostr.bingtech.tk":{"as":"AS136907 HUAWEI CLOUDS","city":"Singapore","country":"Singapore","countryCode":"SG","isp":"Huawei International Pte. LTD","lat":1.352,"lon":103.8198,"org":"","query":"119.13.100.46","region":"03","regionName":"North West","timezone":"Asia/Singapore","zip":"858877","continentCode":"AS","continentName":"Asia","dns":{"name":"nostr.bingtech.tk","type":1,"TTL":300,"data":"119.13.100.46"}},"wss://nostr.barf.bz":{"as":"AS14061 DigitalOcean, LLC","city":"Singapore","country":"Singapore","countryCode":"SG","isp":"DigitalOcean, LLC","lat":1.32123,"lon":103.695,"org":"DigitalOcean, LLC","query":"146.190.84.85","region":"05","regionName":"South West","timezone":"Asia/Singapore","zip":"627753","continentCode":"AS","continentName":"Asia","dns":{"name":"nostr.barf.bz","type":1,"TTL":3600,"data":"146.190.84.85"}},"wss://nostr.argdx.net":{"as":"AS30722 Vodafone Italia S.p.A.","city":"Vaiano","country":"Italy","countryCode":"IT","isp":"VODAFONE","lat":43.9645,"lon":11.1259,"org":"","query":"2.39.173.126","region":"52","regionName":"Tuscany","timezone":"Europe/Rome","zip":"59021","continentCode":"EU","continentName":"Europe","dns":{"name":"nostr.argdx.net","type":1,"TTL":1800,"data":"2.39.173.126"}},"wss://nostr.app.runonflux.io":{"as":"AS24940 Hetzner Online GmbH","city":"Helsinki","country":"Finland","countryCode":"FI","isp":"Hetzner Online GmbH","lat":60.1719,"lon":24.9347,"org":"Hetzner","query":"65.21.189.1","region":"18","regionName":"Uusimaa","timezone":"Europe/Helsinki","zip":"00100","continentCode":"EU","continentName":"Europe","dns":{"name":"fdm-lb-1.runonflux.io","type":1,"TTL":30,"data":"65.21.189.1"}},"wss://nostr.aozing.com":{"as":"AS14618 Amazon.com, Inc.","city":"Ashburn","country":"United States","countryCode":"US","isp":"Amazon.com, Inc.","lat":39.0438,"lon":-77.4874,"org":"AWS EC2 (us-east-1)","query":"54.89.40.121","region":"VA","regionName":"Virginia","timezone":"America/New_York","zip":"20149","continentCode":"NA","continentName":"North America","dns":{"name":"nostr.aozing.com","type":1,"TTL":60,"data":"54.89.40.121"}},"wss://nostr.ahaspharos.de":{"as":"AS8560 IONOS SE","city":"Essen","country":"Germany","countryCode":"DE","isp":"IONOS SE","lat":51.4556,"lon":7.01156,"org":"IONOS SE","query":"217.160.41.202","region":"NW","regionName":"North Rhine-Westphalia","timezone":"Europe/Berlin","zip":"45127","continentCode":"EU","continentName":"Europe","dns":{"name":"nostr.ahaspharos.de","type":1,"TTL":177,"data":"217.160.41.202"}},"wss://nostr.actn.io":{"as":"AS13335 Cloudflare, Inc.","city":"Amsterdam","country":"Netherlands","countryCode":"NL","isp":"Cloudflare, Inc.","lat":52.3716,"lon":4.8883,"org":"CloudFlare, Inc.","query":"188.114.96.12","region":"NH","regionName":"North Holland","timezone":"Europe/Amsterdam","zip":"1012","continentCode":"EU","continentName":"Europe","dns":{"name":"nostr.actn.io","type":1,"TTL":300,"data":"188.114.96.12"}},"wss://nostr.21sats.net":{"as":"AS13335 Cloudflare, Inc.","city":"Amsterdam","country":"Netherlands","countryCode":"NL","isp":"Cloudflare, Inc.","lat":52.3716,"lon":4.8883,"org":"CloudFlare, Inc.","query":"188.114.97.12","region":"NH","regionName":"North Holland","timezone":"Europe/Amsterdam","zip":"1012","continentCode":"EU","continentName":"Europe","dns":{"name":"nostr.21sats.net","type":1,"TTL":300,"data":"188.114.97.12"}},"wss://nostr.21m.fr":{"as":"AS16276 OVH SAS","city":"Roubaix","country":"France","countryCode":"FR","isp":"OVH SAS","lat":50.6918,"lon":3.2021,"org":"OVH ISP","query":"87.98.138.79","region":"HDF","regionName":"Hauts-de-France","timezone":"Europe/Paris","zip":"59100","continentCode":"EU","continentName":"Europe","dns":{"name":"nostr.21m.fr","type":1,"TTL":60,"data":"87.98.138.79"}},"wss://nostr.1f52b.xyz":{"as":"AS20473 The Constant Company, LLC","city":"London","country":"United Kingdom","countryCode":"GB","isp":"Choopa","lat":51.5128,"lon":-0.0638,"org":"Vultr Holdings, LLC","query":"45.77.88.39","region":"ENG","regionName":"England","timezone":"Europe/London","zip":"E1","continentCode":"EU","continentName":"Europe","dns":{"name":"nostr.1f52b.xyz","type":1,"TTL":200,"data":"45.77.88.39"}},"wss://nostr-verified.wellorder.net":{"as":"AS63949 Akamai Connected Cloud","city":"Richardson","country":"United States","countryCode":"US","isp":"Akamai Technologies, Inc.","lat":32.9473,"lon":-96.7028,"org":"Linode","query":"50.116.30.242","region":"TX","regionName":"Texas","timezone":"America/Chicago","zip":"75081","continentCode":"NA","continentName":"North America","dns":{"name":"wellorder.net","type":1,"TTL":27179,"data":"50.116.30.242"}},"wss://nostr-relay.usebitcoin.space":{"as":"AS14061 DigitalOcean, LLC","city":"Santa Clara","country":"United States","countryCode":"US","isp":"DigitalOcean, LLC","lat":37.3931,"lon":-121.962,"org":"DigitalOcean, LLC","query":"164.92.123.114","region":"CA","regionName":"California","timezone":"America/Los_Angeles","zip":"95054","continentCode":"NA","continentName":"North America","dns":{"name":"nostr-relay.usebitcoin.space","type":1,"TTL":600,"data":"164.92.123.114"}},"wss://nostr-relay.untethr.me":{"as":"AS15169 Google LLC","city":"Council Bluffs","country":"United States","countryCode":"US","isp":"Google LLC","lat":41.2619,"lon":-95.8608,"org":"Google Cloud (us-central1)","query":"35.208.215.21","region":"IA","regionName":"Iowa","timezone":"America/Chicago","zip":"","continentCode":"NA","continentName":"North America","dns":{"name":"nostr-relay.untethr.me","type":1,"TTL":1376,"data":"35.208.215.21"}},"wss://nostr-relay.trustbtc.org":{"as":"AS13335 Cloudflare, Inc.","city":"San Francisco","country":"United States","countryCode":"US","isp":"Cloudflare, Inc.","lat":37.7803,"lon":-122.39,"org":"Cloudflare, Inc.","query":"172.67.218.197","region":"CA","regionName":"California","timezone":"America/Los_Angeles","zip":"94107","continentCode":"NA","continentName":"North America","dns":{"name":"nostr-relay.trustbtc.org","type":1,"TTL":300,"data":"172.67.218.197"}},"wss://nostr-relay.nonce.academy":{"as":"AS13335 Cloudflare, Inc.","city":"Toronto","country":"Canada","countryCode":"CA","isp":"Cloudflare, Inc.","lat":43.6532,"lon":-79.3832,"org":"Cloudflare, Inc.","query":"172.67.128.142","region":"ON","regionName":"Ontario","timezone":"America/Toronto","zip":"M5A","continentCode":"NA","continentName":"North America","dns":{"name":"nostr-relay.nonce.academy","type":1,"TTL":300,"data":"172.67.128.142"}},"wss://nostr-relay.lnmarkets.com":{"as":"AS45021 BIP21 SAS","city":"London","country":"United Kingdom","countryCode":"GB","isp":"Vem","lat":51.5164,"lon":-0.093,"org":"","query":"86.104.228.8","region":"ENG","regionName":"England","timezone":"Europe/London","zip":"EC2V","continentCode":"EU","continentName":"Europe","dns":{"name":"nostr-relay.lnmarkets.com","type":1,"TTL":300,"data":"86.104.228.8"}},"wss://nostr-relay.j3s7m4n.com":{"as":"AS14061 DigitalOcean, LLC","city":"Clifton","country":"United States","countryCode":"US","isp":"DigitalOcean, LLC","lat":40.8364,"lon":-74.1403,"org":"Digital Ocean","query":"138.197.105.203","region":"NJ","regionName":"New Jersey","timezone":"America/New_York","zip":"07014","continentCode":"NA","continentName":"North America","dns":{"name":"nostr-relay.j3s7m4n.com","type":1,"TTL":1799,"data":"138.197.105.203"}},"wss://nostr-relay.freeberty.net":{"as":"AS35913 DediPath","city":"Los Angeles","country":"United States","countryCode":"US","isp":"DediPath","lat":34.0515,"lon":-118.2707,"org":"DediPath, LLC","query":"194.5.154.8","region":"CA","regionName":"California","timezone":"America/Los_Angeles","zip":"90017","continentCode":"NA","continentName":"North America","dns":{"name":"nostr-relay.freeberty.net","type":1,"TTL":300,"data":"194.5.154.8"}},"wss://nostr-relay.bitcoin.ninja":{"as":"AS397444 Overkill Interbuzz LLC","city":"Anthony","country":"United States","countryCode":"US","isp":"Overkill Interbuzz LLC","lat":37.1534,"lon":-98.0312,"org":"Overkill Interbuzz LLC","query":"208.68.6.73","region":"KS","regionName":"Kansas","timezone":"America/Chicago","zip":"67003","continentCode":"NA","continentName":"North America","dns":{"name":"nostr-relay.bitcoin.ninja","type":1,"TTL":3600,"data":"208.68.6.73"}},"wss://nostr-pub.semisol.dev":{"as":"AS24940 Hetzner Online GmbH","city":"Nuremberg","country":"Germany","countryCode":"DE","isp":"Hetzner Online GmbH","lat":49.4521,"lon":11.0767,"org":"Hetzner","query":"116.203.188.235","region":"BY","regionName":"Bavaria","timezone":"Europe/Berlin","zip":"90403","continentCode":"EU","continentName":"Europe","dns":{"name":"semisol.dev","type":1,"TTL":56,"data":"116.203.188.235"}},"wss://nostr-mv.ashiroid.com":{"as":"AS22612 Namecheap, Inc.","city":"New York","country":"United States","countryCode":"US","isp":"Namecheap, Inc.","lat":40.7128,"lon":-74.006,"org":"Namecheap, Inc.","query":"198.54.115.166","region":"NY","regionName":"New York","timezone":"America/New_York","zip":"10123","continentCode":"NA","continentName":"North America","dns":{"name":"nostr-mv.ashiroid.com","type":1,"TTL":289,"data":"198.54.115.166"}},"wss://nostr-alpha.gruntwerk.org":{"as":"AS13335 Cloudflare, Inc.","city":"Amsterdam","country":"Netherlands","countryCode":"NL","isp":"Cloudflare, Inc.","lat":52.3716,"lon":4.8883,"org":"CloudFlare, Inc.","query":"188.114.96.12","region":"NH","regionName":"North Holland","timezone":"Europe/Amsterdam","zip":"1012","continentCode":"EU","continentName":"Europe","dns":{"name":"nostr-alpha.gruntwerk.org","type":1,"TTL":300,"data":"188.114.96.12"}},"wss://nostr-3.orba.ca":{"as":"AS16509 Amazon.com, Inc.","city":"Portland","country":"United States","countryCode":"US","isp":"Amazon.com, Inc.","lat":45.5235,"lon":-122.676,"org":"AWS EC2 (us-west-2)","query":"35.90.216.28","region":"OR","regionName":"Oregon","timezone":"America/Los_Angeles","zip":"97207","continentCode":"NA","continentName":"North America","dns":{"name":"nostr-3.orba.ca","type":1,"TTL":600,"data":"35.90.216.28"}},"wss://nostr-2.zebedee.cloud":{"as":"AS14061 DigitalOcean, LLC","city":"Santa Clara","country":"United States","countryCode":"US","isp":"DigitalOcean, LLC","lat":37.3931,"lon":-121.962,"org":"DigitalOcean, LLC","query":"146.190.1.235","region":"CA","regionName":"California","timezone":"America/Los_Angeles","zip":"95054","continentCode":"NA","continentName":"North America","dns":{"name":"nostr-2.zebedee.cloud","type":1,"TTL":1074,"data":"146.190.1.235"}},"wss://nostr-2.orba.ca":{"as":"AS16509 Amazon.com, Inc.","city":"Portland","country":"United States","countryCode":"US","isp":"Amazon.com, Inc.","lat":45.5235,"lon":-122.676,"org":"AWS EC2 (us-west-2)","query":"35.160.119.172","region":"OR","regionName":"Oregon","timezone":"America/Los_Angeles","zip":"97207","continentCode":"NA","continentName":"North America","dns":{"name":"nostr-2.orba.ca","type":1,"TTL":600,"data":"35.160.119.172"}},"wss://nostr-01.dorafactory.org":{"as":"AS16509 Amazon.com, Inc.","city":"Singapore","country":"Singapore","countryCode":"SG","isp":"Amazon Technologies Inc.","lat":1.28009,"lon":103.851,"org":"AWS EC2 (ap-southeast-1)","query":"13.229.130.131","region":"01","regionName":"Central Singapore","timezone":"Asia/Singapore","zip":"048582","continentCode":"AS","continentName":"Asia","dns":{"name":"nostr-01.dorafactory.org","type":1,"TTL":300,"data":"13.229.130.131"}},"wss://nostr-01.bolt.observer":{"as":"AS13335 Cloudflare, Inc.","city":"Toronto","country":"Canada","countryCode":"CA","isp":"Cloudflare, Inc.","lat":43.6532,"lon":-79.3832,"org":"Cloudflare, Inc.","query":"172.67.73.4","region":"ON","regionName":"Ontario","timezone":"America/Toronto","zip":"M5A","continentCode":"NA","continentName":"North America","dns":{"name":"nostr-01.bolt.observer","type":1,"TTL":300,"data":"172.67.73.4"}},"wss://noster.online":{"as":"AS24940 Hetzner Online GmbH","city":"Helsinki","country":"Finland","countryCode":"FI","isp":"Hetzner Online GmbH","lat":60.1719,"lon":24.9347,"org":"HETZNER-DC","query":"95.217.167.93","region":"18","regionName":"Uusimaa","timezone":"Europe/Helsinki","zip":"00100","continentCode":"EU","continentName":"Europe","dns":{"name":"noster.online","type":1,"TTL":3177,"data":"95.217.167.93"}},"wss://no.str.watch":{"as":"AS36352 ColoCrossing","city":"Chicago","country":"United States","countryCode":"US","isp":"ColoCrossing","lat":41.8874,"lon":-87.6318,"org":"RackNerd LLC","query":"198.46.215.52","region":"IL","regionName":"Illinois","timezone":"America/Chicago","zip":"60602","continentCode":"NA","continentName":"North America","dns":{"name":"no.str.watch","type":1,"TTL":600,"data":"198.46.215.52"}},"wss://no.contry.xyz":{"as":"AS20473 The Constant Company, LLC","city":"Shinagawa","country":"Japan","countryCode":"JP","isp":"Choopa","lat":35.6092,"lon":139.73,"org":"Vultr Holdings, LLC","query":"198.13.32.125","region":"13","regionName":"Tokyo","timezone":"Asia/Tokyo","zip":"141-0033","continentCode":"AS","continentName":"Asia","dns":{"name":"no.contry.xyz","type":1,"TTL":300,"data":"198.13.32.125"}},"wss://no-str.org":{"as":"AS16509 Amazon.com, Inc.","city":"Hong Kong","country":"Hong Kong","countryCode":"HK","isp":"Amazon Technologies Inc.","lat":22.3964,"lon":114.109,"org":"AWS EC2 (ap-east-1)","query":"18.167.182.7","region":"HCW","regionName":"Central and Western","timezone":"Asia/Hong_Kong","zip":"","continentCode":"AS","continentName":"Asia","dns":{"name":"no-str.org","type":1,"TTL":300,"data":"18.167.182.7"}},"wss://mule.platanito.org":{"as":"AS20473 The Constant Company, LLC","city":"Piscataway","country":"United States","countryCode":"US","isp":"Choopa","lat":40.5511,"lon":-74.4606,"org":"Vultr Holdings, LLC","query":"140.82.60.65","region":"NJ","regionName":"New Jersey","timezone":"America/New_York","zip":"08854","continentCode":"NA","continentName":"North America","dns":{"name":"mule.platanito.org","type":1,"TTL":5208,"data":"140.82.60.65"}},"wss://lv01.tater.ninja":{"as":"AS53667 FranTech Solutions","city":"Las Vegas","country":"United States","countryCode":"US","isp":"FranTech Solutions","lat":36.1697,"lon":-115.1236,"org":"FranTech Solutions","query":"205.185.114.10","region":"NV","regionName":"Nevada","timezone":"America/Los_Angeles","zip":"89101","continentCode":"NA","continentName":"North America","dns":{"name":"lv01.tater.ninja","type":1,"TTL":300,"data":"205.185.114.10"}},"wss://freespeech.casa":{"as":"AS213230 Hetzner Online GmbH","city":"Ashburn","country":"United States","countryCode":"US","isp":"Hetzner Online GmbH","lat":39.0438,"lon":-77.4874,"org":"HETZNER-DC","query":"5.161.77.136","region":"VA","regionName":"Virginia","timezone":"America/New_York","zip":"20149","continentCode":"NA","continentName":"North America","dns":{"name":"freespeech.casa","type":1,"TTL":600,"data":"5.161.77.136"}},"wss://free-relay.nostrich.land":{"as":"AS54600 PEG TECH INC","city":"San Jose","country":"United States","countryCode":"US","isp":"PEG TECH INC","lat":37.3342,"lon":-121.892,"org":"PEG TECH INC","query":"192.74.254.193","region":"CA","regionName":"California","timezone":"America/Los_Angeles","zip":"95113","continentCode":"NA","continentName":"North America","dns":{"name":"free-relay.nostrich.land","type":1,"TTL":888,"data":"192.74.254.193"}},"wss://foolay.nostr.moe":{"as":"AS40509 Fly.io, Inc.","city":"Chicago","country":"United States","countryCode":"US","isp":"Fly.io, Inc.","lat":41.8781,"lon":-87.6298,"org":"Fly.io, Inc.","query":"66.241.125.68","region":"IL","regionName":"Illinois","timezone":"America/Chicago","zip":"60680","continentCode":"NA","continentName":"North America","dns":{"name":"foolay.fly.dev","type":1,"TTL":300,"data":"66.241.125.68"}},"wss://expensive-relay.fiatjaf.com":{"as":"AS53667 FranTech Solutions","city":"Luxembourg","country":"Luxembourg","countryCode":"LU","isp":"FranTech Solutions","lat":49.6113,"lon":6.1294,"org":"BuyVM","query":"107.189.30.195","region":"LU","regionName":"Luxembourg","timezone":"Europe/Luxembourg","zip":"L-1661","continentCode":"EU","continentName":"Europe","dns":{"name":"turgot.fiatjaf.com","type":1,"TTL":300,"data":"107.189.30.195"}},"wss://eden.nostr.land":{"as":"AS13335 Cloudflare, Inc.","city":"Toronto","country":"Canada","countryCode":"CA","isp":"Cloudflare, Inc.","lat":43.6532,"lon":-79.3832,"org":"Cloudflare, Inc.","query":"172.67.161.102","region":"ON","regionName":"Ontario","timezone":"America/Toronto","zip":"M5A","continentCode":"NA","continentName":"North America","dns":{"name":"eden.nostr.land","type":1,"TTL":300,"data":"172.67.161.102"}},"wss://deschooling.us":{"as":"AS213230 Hetzner Online GmbH","city":"Ashburn","country":"United States","countryCode":"US","isp":"Hetzner Online GmbH","lat":39.0438,"lon":-77.4874,"org":"HETZNER-DC","query":"5.161.179.3","region":"VA","regionName":"Virginia","timezone":"America/New_York","zip":"20149","continentCode":"NA","continentName":"North America","dns":{"name":"deschooling.us","type":1,"TTL":86400,"data":"5.161.179.3"}},"wss://brb.io":{"as":"AS13335 Cloudflare, Inc.","city":"Toronto","country":"Canada","countryCode":"CA","isp":"Cloudflare, Inc.","lat":43.6532,"lon":-79.3832,"org":"Cloudflare, Inc.","query":"172.67.73.77","region":"ON","regionName":"Ontario","timezone":"America/Toronto","zip":"M5A","continentCode":"NA","continentName":"North America","dns":{"name":"brb.io","type":1,"TTL":161,"data":"172.67.73.77"}},"wss://bitcoiner.social":{"as":"AS35916 MULTACOM CORPORATION","city":"Upton","country":"United States","countryCode":"US","isp":"Multacom Corporation","lat":40.8611,"lon":-72.8778,"org":"Multacom Corporation","query":"216.127.184.44","region":"NY","regionName":"New York","timezone":"America/New_York","zip":"11973","continentCode":"NA","continentName":"North America","dns":{"name":"bitcoiner.social","type":1,"TTL":3139,"data":"216.127.184.44"}},"wss://at.nostrworks.com":{"as":"AS197540 netcup GmbH","city":"Vienna","country":"Austria","countryCode":"AT","isp":"netcup GmbH","lat":48.1951,"lon":16.3483,"org":"Anexia","query":"188.172.228.55","region":"9","regionName":"Vienna","timezone":"Europe/Vienna","zip":"1060","continentCode":"EU","continentName":"Europe","dns":{"name":"at.nostrworks.com","type":1,"TTL":78647,"data":"188.172.228.55"}},"wss://astral.ninja":{"as":"AS47583 Hostinger International Limited","city":"Vilnius","country":"Lithuania","countryCode":"LT","isp":"Hostinger International Limited","lat":54.6912,"lon":25.2816,"org":"Hostinger International Limited","query":"45.93.137.155","region":"VL","regionName":"Vilnius","timezone":"Europe/Vilnius","zip":"02011","continentCode":"EU","continentName":"Europe","dns":{"name":"astral.ninja","type":1,"TTL":1070,"data":"45.93.137.155"}},"wss://btc-italia.online":{"as":"AS3269 Telecom Italia S.p.A.","city":"Rome","country":"Italy","countryCode":"IT","isp":"INTERBUSINESS","lat":41.8904,"lon":12.5126,"org":"","query":"79.27.1.107","region":"62","regionName":"Lazio","timezone":"Europe/Rome","zip":"00135","continentCode":"EU","continentName":"Europe","dns":{"name":"btc-italia.online","type":1,"TTL":300,"data":"79.27.1.107"}},"wss://Merrcurr.up.railway.app":{"as":"AS396982 Google LLC","city":"The Dalles","country":"United States","countryCode":"US","isp":"Google LLC","lat":45.5945,"lon":-121.1786,"org":"Google Cloud (us-west1)","query":"104.196.232.237","region":"OR","regionName":"Oregon","timezone":"America/Los_Angeles","zip":"97058","continentCode":"NA","continentName":"North America","dns":{"name":"Merrcurr.up.railway.app","type":1,"TTL":300,"data":"104.196.232.237"}},"wss://nostr.libertasprimordium.com":{"as":"AS396982 Google LLC","city":"The Dalles","country":"United States","countryCode":"US","isp":"Google LLC","lat":45.5945,"lon":-121.1786,"org":"Google Cloud (us-west1)","query":"35.233.194.49","region":"OR","regionName":"Oregon","timezone":"America/Los_Angeles","zip":"97058","continentCode":"NA","continentName":"North America","dns":{"name":"nostr.libertasprimordium.com","type":1,"TTL":2925,"data":"35.233.194.49"}},"wss://paid.nostrified.org":{"as":"AS42730 EVANZO e-commerce GmbH","city":"Berlin","country":"Germany","countryCode":"DE","isp":"BLU-VH","lat":52.5233,"lon":13.3426,"org":"1blu AG","query":"178.254.45.110","region":"BE","regionName":"Land Berlin","timezone":"Europe/Berlin","zip":"10555","continentCode":"EU","continentName":"Europe","dns":{"name":"paid.nostrified.org","type":1,"TTL":300,"data":"178.254.45.110"}}}